name,lat,lon,district,address,pedestrian_traffic_estimate,metro_passenger_flow,distance_to_metro,public_transport_stops_count,cafes_300m,cafes_1km,average_competitor_rating,population_density,median_income,office_density,average_rent_m2,available_commercial_spaces
Родник,55.605461,37.3541,ЮЗАО,,5500,,,11,4,7,,10500,98000,0,29000,165
Венеция,55.6143912,37.472788,ЮЗАО,,4500,,,9,0,4,,10500,98000,0,29000,165
,55.610536,37.4645002,ЮЗАО,,3500,,,7,0,3,,10500,98000,0,29000,165
Вкусно — и точка,55.6191327,37.5070793,ЮЗАО,,9500,,,19,22,27,,10500,98000,0,29000,165
,55.6147365,37.5144143,ЮЗАО,,2000,,,4,0,24,,10500,98000,0,29000,165
Золотой Фазан,55.5976559,37.3563881,ЮЗАО,,5500,,,11,0,11,,10500,98000,0,29000,165
Кофе Хауз,55.6182552,37.5070676,ЮЗАО,,9500,,,19,22,27,,10500,98000,0,29000,165
Вкусно — и точка,55.6195632,37.5089847,ЮЗАО,,8500,,,17,21,27,,10500,98000,0,29000,165
Stars Coffee,55.6036933,37.4906682,ЮЗАО,,4500,,,9,21,30,,10500,98000,0,29000,165
,55.5299965,37.4454334,ЮЗАО,,3000,,,6,1,5,,10500,98000,0,29000,165
Тройка,55.6259086,37.4839078,ЮЗАО,,4000,,,8,0,7,,10500,98000,0,29000,165
,55.5718301,37.3567086,ЮЗАО,,2500,,,5,0,0,,10500,98000,0,29000,165
БониМария,55.6216961,37.4808304,ЮЗАО,,5000,,,10,1,7,,10500,98000,0,29000,165
Вкусно — и точка,55.6035292,37.4917677,ЮЗАО,,4500,,,9,21,30,,10500,98000,0,29000,165
Артико,55.5965718,37.5125321,ЮЗАО,,1000,,,2,0,1,,10500,98000,0,29000,165
Якитория,55.5915724,37.3660684,ЮЗАО,,4500,,,9,1,8,,10500,98000,0,29000,165
Maximus,55.6316931,37.4826248,ЮЗАО,,6500,,,13,0,5,,10500,98000,0,29000,165
Таверна на Дубровке,55.5663879,37.4453719,ЮЗАО,,3500,,,7,2,8,,10500,98000,0,29000,165
Чё Хотэли Пили-Ели,55.5702462,37.449573,ЮЗАО,,2000,,,4,2,6,,10500,98000,0,29000,165
Пахра,55.626162,37.4732024,ЮЗАО,,1000,,,2,1,7,,10500,98000,0,29000,165
,55.4964783,37.5024949,ЮЗАО,,2500,,,5,0,1,,10500,98000,0,29000,165
Кафе,55.5316699,37.4469201,ЮЗАО,,3000,,,6,3,5,,10500,98000,0,29000,165
Столовая,55.5249677,37.446483,ЮЗАО,,3000,,,6,1,5,,10500,98000,0,29000,165
Южный дворик,55.5233572,37.4487392,ЮЗАО,,4000,,,8,1,3,,10500,98000,0,29000,165
,55.5577566,37.4347968,ЮЗАО,,4000,,,8,0,5,,10500,98000,0,29000,165
Встреча,55.6167344,37.5091198,ЮЗАО,,8500,,,17,17,26,,10500,98000,0,29000,165
У камина,55.6279126,37.4372702,ЮЗАО,,2500,,,5,0,5,,10500,98000,0,29000,165
Му-му,55.6181687,37.5071374,ЮЗАО,,9500,,,19,22,27,,10500,98000,0,29000,165
Флорентини,55.5700354,37.4492973,ЮЗАО,,2000,,,4,2,5,,10500,98000,0,29000,165
cinnabon,55.6034301,37.4915902,ЮЗАО,,4500,,,9,21,30,,10500,98000,0,29000,165
Панда пицца,55.5657438,37.472369,ЮЗАО,,3000,,,6,1,11,,10500,98000,0,29000,165
Rostic's,55.6195952,37.5095014,ЮЗАО,,8500,,,17,19,27,,10500,98000,0,29000,165
Subway,55.6100418,37.4879772,ЮЗАО,,2500,,,5,0,23,,10500,98000,0,29000,165
Rostic's,55.6189954,37.5070492,ЮЗАО,,9500,,,19,22,27,,10500,98000,0,29000,165
Rostic's,55.603656,37.4919083,ЮЗАО,,4500,,,9,21,30,,10500,98000,0,29000,165
Суши Wok,55.5404364,37.4928113,ЮЗАО,,4500,,,9,0,10,,10500,98000,0,29000,165
Птицы и пчёлы,55.5601571,37.4381307,ЮЗАО,,4000,,,8,2,8,,10500,98000,0,29000,165
Кафе гриль,55.6169229,37.508562,ЮЗАО,,9000,,,18,20,26,,10500,98000,0,29000,165
Теремок,55.6196023,37.5091197,ЮЗАО,,8500,,,17,20,27,,10500,98000,0,29000,165
Хинкальная,55.6300887,37.4740902,ЮЗАО,,5500,,,11,0,4,,10500,98000,0,29000,165
SomeMeat,55.5680709,37.4471838,ЮЗАО,,3000,,,6,3,7,,10500,98000,0,29000,165
Якитория,55.5936977,37.3511016,ЮЗАО,,1500,,,3,2,5,,10500,98000,0,29000,165
"Шаурма, тандыр",55.537468,37.5130174,ЮЗАО,,6500,,,13,3,4,,10500,98000,0,29000,165
Бургер Кинг,55.5371813,37.5119834,ЮЗАО,,5000,,,10,3,4,,10500,98000,0,29000,165
Донар Кебаб,55.5683241,37.474942,ЮЗАО,,4500,,,9,3,16,,10500,98000,0,29000,165
Голодный ёж,55.5692811,37.4758015,ЮЗАО,,4000,,,8,5,16,,10500,98000,0,29000,165
Flash Royal,55.5726789,37.4736428,ЮЗАО,,6000,,,12,2,10,,10500,98000,0,29000,165
Шаурма,55.6215131,37.4810676,ЮЗАО,,5500,,,11,1,7,,10500,98000,0,29000,165
Бургер Кинг,55.6192542,37.5092178,ЮЗАО,,8500,,,17,22,27,,10500,98000,0,29000,165
Бургер Кинг,55.617761,37.508719,ЮЗАО,,9500,,,19,22,26,,10500,98000,0,29000,165
Бургер Кинг,55.6038792,37.4917499,ЮЗАО,,4500,,,9,21,30,,10500,98000,0,29000,165
Бургер Кинг,55.5937496,37.3512652,ЮЗАО,,1500,,,3,2,5,,10500,98000,0,29000,165
ShushiClub,55.6024433,37.3640548,ЮЗАО,,5500,,,11,0,7,,10500,98000,0,29000,165
Токио Бэй,55.6190487,37.5093285,ЮЗАО,,8500,,,17,22,27,,10500,98000,0,29000,165
Мэри,55.6228746,37.5060933,ЮЗАО,,6500,,,13,1,27,,10500,98000,0,29000,165
Буфет от Ашан,55.6052791,37.4900901,ЮЗАО,,4000,,,8,20,30,,10500,98000,0,29000,165
Лафка,55.5333694,37.4496198,ЮЗАО,,3000,,,6,2,4,,10500,98000,0,29000,165
Rostic's,55.619304,37.5062917,ЮЗАО,,9500,,,19,20,27,,10500,98000,0,29000,165
Поесть и,55.5695738,37.4925812,ЮЗАО,,3000,,,6,4,15,,10500,98000,0,29000,165
,55.6304835,37.5143356,ЮЗАО,,3000,,,6,2,12,,10500,98000,0,29000,165
Шаурма,55.6306885,37.5155827,ЮЗАО,,3500,,,7,2,11,,10500,98000,0,29000,165
Шоколадница,55.6186365,37.5069906,ЮЗАО,,9500,,,19,22,27,,10500,98000,0,29000,165
Comme a Paris,55.6301372,37.5163435,ЮЗАО,,3500,,,7,2,11,,10500,98000,0,29000,165
Пекарня ПКП,55.5418318,37.4860048,ЮЗАО,,4500,,,9,4,14,,10500,98000,0,29000,165
Неаполитанская пицца,55.5913175,37.374361,ЮЗАО,,3500,,,7,1,3,,10500,98000,0,29000,165
Mr. croissant,55.6187578,37.506938,ЮЗАО,,9500,,,19,22,27,,10500,98000,0,29000,165
Rostic's,55.536174,37.5154613,ЮЗАО,,5000,,,10,3,4,,10500,98000,0,29000,165
Солёная карамель,55.5253717,37.5149653,ЮЗАО,,6500,,,13,3,4,,10500,98000,0,29000,165
Миндаль,55.5430736,37.4878734,ЮЗАО,,4500,,,9,4,14,,10500,98000,0,29000,165
,55.5242607,37.5146823,ЮЗАО,,5500,,,11,3,4,,10500,98000,0,29000,165
Суши Вок,55.5255649,37.5149751,ЮЗАО,,6500,,,13,3,4,,10500,98000,0,29000,165
Киргизия,55.6230847,37.4418598,ЮЗАО,,2000,,,4,0,1,,10500,98000,0,29000,165
Вкусно — и точка,55.6175077,37.5068253,ЮЗАО,,9500,,,19,22,26,,10500,98000,0,29000,165
Surf Coffee,55.6225333,37.4220025,ЮЗАО,,8000,,,16,20,22,,10500,98000,0,29000,165
Моремания,55.6225141,37.4214201,ЮЗАО,,8000,,,16,20,23,,10500,98000,0,29000,165
Pomodoro,55.5727385,37.4857722,ЮЗАО,,2500,,,5,0,19,,10500,98000,0,29000,165
,55.6051765,37.5039117,ЮЗАО,,2500,,,5,0,24,,10500,98000,0,29000,165
Сушишоп,55.5647921,37.4717608,ЮЗАО,,2500,,,5,1,11,,10500,98000,0,29000,165
Мясо & Рыба,55.6035654,37.4917178,ЮЗАО,,4500,,,9,21,30,,10500,98000,0,29000,165
,55.4900364,37.5031498,ЮЗАО,,2000,,,4,0,1,,10500,98000,0,29000,165
Ozyurt,55.6012536,37.4819703,ЮЗАО,,5500,,,11,3,26,,10500,98000,0,29000,165
Додо Пицца,55.6222174,37.5060014,ЮЗАО,,7000,,,14,1,27,,10500,98000,0,29000,165
Pinzeria by Bontempi,55.5250931,37.3854637,ЮЗАО,,4500,,,9,0,1,,10500,98000,0,29000,165
It's coffee,55.6177523,37.5055878,ЮЗАО,,9500,,,19,20,26,,10500,98000,0,29000,165
Лаззат,55.5982825,37.4594465,ЮЗАО,,1500,,,3,0,11,,10500,98000,0,29000,165
Лимон,55.5553179,37.4676998,ЮЗАО,,1500,,,3,1,4,,10500,98000,0,29000,165
Гамбринус,55.625125,37.5089527,ЮЗАО,,1500,,,3,1,29,,10500,98000,0,29000,165
,55.626122,37.4735391,ЮЗАО,,1000,,,2,1,8,,10500,98000,0,29000,165
Бургер Кинг,55.6241225,37.4215955,ЮЗАО,,7000,,,14,20,21,,10500,98000,0,29000,165
Здрасте,55.5665469,37.4973088,ЮЗАО,,1500,,,3,3,16,,10500,98000,0,29000,165
Cinnabon,55.6241861,37.4224859,ЮЗАО,,7000,,,14,20,21,,10500,98000,0,29000,165
Хинкали Gали,55.5142297,37.3722409,ЮЗАО,,1000,,,2,0,0,,10500,98000,0,29000,165
Ситипицца,55.5143024,37.3516558,ЮЗАО,,4500,,,9,2,4,,10500,98000,0,29000,165
Vasilchuki Chaihona №1,55.6251324,37.4224189,ЮЗАО,,7500,,,15,18,22,,10500,98000,0,29000,165
МясоRoob,55.623695,37.421735,ЮЗАО,,7500,,,15,20,21,,10500,98000,0,29000,165
Vasilchuki Chaihona №1,55.6036881,37.4918338,ЮЗАО,,4500,,,9,21,30,,10500,98000,0,29000,165
Бургер гуру,55.5689823,37.4890693,ЮЗАО,,5000,,,10,3,20,,10500,98000,0,29000,165
"Алло, пицца",55.6267169,37.5109608,ЮЗАО,,2500,,,5,1,27,,10500,98000,0,29000,165
,55.5656963,37.4442498,ЮЗАО,,3000,,,6,1,8,,10500,98000,0,29000,165
Барское застолье,55.5401461,37.4322169,ЮЗАО,,0,,,0,0,0,,10500,98000,0,29000,165
Pasta+salsa,55.5331268,37.4494476,ЮЗАО,,3000,,,6,2,4,,10500,98000,0,29000,165
Gagawa,55.603871,37.4909572,ЮЗАО,,4500,,,9,21,30,,10500,98000,0,29000,165
One Price Coffee,55.6194423,37.5091883,ЮЗАО,,8500,,,17,21,27,,10500,98000,0,29000,165
Остерия Марио,55.6242343,37.4208605,ЮЗАО,,7000,,,14,20,21,,10500,98000,0,29000,165
Stardogs,55.6046622,37.3564067,ЮЗАО,,6500,,,13,4,7,,10500,98000,0,29000,165
Крошка Картошка,55.6045593,37.3565048,ЮЗАО,,6500,,,13,4,7,,10500,98000,0,29000,165
Вкусно — и точка,55.6042706,37.3563485,ЮЗАО,,6500,,,13,4,7,,10500,98000,0,29000,165
,55.5893151,37.3744493,ЮЗАО,,3000,,,6,1,3,,10500,98000,0,29000,165
Здрасте кофе,55.5437463,37.4834682,ЮЗАО,,5000,,,10,6,14,,10500,98000,0,29000,165
Здрасте кофе,55.5935702,37.4605141,ЮЗАО,,1500,,,3,5,12,,10500,98000,0,29000,165
One Price Coffee,55.624171,37.421136,ЮЗАО,,7000,,,14,20,21,,10500,98000,0,29000,165
Chillcup Coffee,55.6181946,37.4073792,ЮЗАО,,1000,,,2,2,3,,10500,98000,0,29000,165
Глобус,55.623692,37.422228,ЮЗАО,,7500,,,15,20,21,,10500,98000,0,29000,165
Глобус,55.5569028,37.494514,ЮЗАО,,8500,,,17,1,39,,10500,98000,0,29000,165
Farsh,55.6236361,37.4223652,ЮЗАО,,7500,,,15,20,21,,10500,98000,0,29000,165
,55.5536866,37.4313775,ЮЗАО,,4000,,,8,1,4,,10500,98000,0,29000,165
Шашлычный рай,55.553032,37.4315961,ЮЗАО,,4000,,,8,1,4,,10500,98000,0,29000,165
Do.Bro Coffee,55.5426872,37.4881427,ЮЗАО,,4000,,,8,3,14,,10500,98000,0,29000,165
Do.Bro Coffee,55.617473,37.409826,ЮЗАО,,2000,,,4,2,7,,10500,98000,0,29000,165
Корчма,55.5361281,37.515501,ЮЗАО,,5000,,,10,3,4,,10500,98000,0,29000,165
,55.5688882,37.4650822,ЮЗАО,,6000,,,12,0,10,,10500,98000,0,29000,165
Alga,55.5622932,37.4397674,ЮЗАО,,5500,,,11,2,7,,10500,98000,0,29000,165
,55.5610024,37.4387522,ЮЗАО,,4000,,,8,2,9,,10500,98000,0,29000,165
Крошка Картошка,55.6038916,37.4910175,ЮЗАО,,4500,,,9,21,30,,10500,98000,0,29000,165
Крошка Картошка,55.594249,37.352561,ЮЗАО,,2500,,,5,2,7,,10500,98000,0,29000,165
Крошка Картошка,55.6189339,37.5068722,ЮЗАО,,9500,,,19,22,27,,10500,98000,0,29000,165
Честная рыба,55.5651585,37.4999235,ЮЗАО,,2000,,,4,3,22,,10500,98000,0,29000,165
Магадан,55.5731635,37.3916271,ЮЗАО,,2000,,,4,0,0,,10500,98000,0,29000,165
Stardogs,55.6181599,37.5076086,ЮЗАО,,9500,,,19,22,27,,10500,98000,0,29000,165
Восток,55.5540172,37.4654411,ЮЗАО,,0,,,0,1,4,,10500,98000,0,29000,165
CofeFest,55.6239844,37.4887741,ЮЗАО,,6000,,,12,0,5,,10500,98000,0,29000,165
Sushi Man,55.5718639,37.4917232,ЮЗАО,,3000,,,6,2,16,,10500,98000,0,29000,165
Крошка Картошка,55.6236467,37.4213542,ЮЗАО,,7500,,,15,20,22,,10500,98000,0,29000,165
Вкусно — и точка,55.6223678,37.4237844,ЮЗАО,,7000,,,14,19,21,,10500,98000,0,29000,165
Stars coffee,55.6238289,37.4237213,ЮЗАО,,7000,,,14,20,22,,10500,98000,0,29000,165
Вкусно — и точка,55.6239965,37.4240273,ЮЗАО,,7000,,,14,20,22,,10500,98000,0,29000,165
Шаурма&Бургер,55.6028645,37.3531267,ЮЗАО,,6000,,,12,4,8,,10500,98000,0,29000,165
Влаваше,55.5702279,37.4915844,ЮЗАО,,3500,,,7,3,17,,10500,98000,0,29000,165
Всплеск,55.5682956,37.4963246,ЮЗАО,,2500,,,5,3,15,,10500,98000,0,29000,165
Vita Juice,55.6042053,37.4915457,ЮЗАО,,4500,,,9,21,30,,10500,98000,0,29000,165
Cofix,55.6189486,37.5069595,ЮЗАО,,9500,,,19,22,27,,10500,98000,0,29000,165
Cofix,55.6237618,37.4240586,ЮЗАО,,7000,,,14,20,22,,10500,98000,0,29000,165
Cofix,55.6242585,37.421064,ЮЗАО,,7000,,,14,20,21,,10500,98000,0,29000,165
Шаурма,55.5256786,37.5149487,ЮЗАО,,6500,,,13,3,4,,10500,98000,0,29000,165
Здрасте,55.617531,37.408614,ЮЗАО,,2000,,,4,2,4,,10500,98000,0,29000,165
Здрасте,55.6037025,37.4120253,ЮЗАО,,2500,,,5,2,2,,10500,98000,0,29000,165
BB&Burgers,55.6242193,37.4214881,ЮЗАО,,7000,,,14,20,21,,10500,98000,0,29000,165
Влаваше,55.6053823,37.4132556,ЮЗАО,,1500,,,3,2,2,,10500,98000,0,29000,165
Gagawa,55.6242737,37.4224108,ЮЗАО,,7000,,,14,20,21,,10500,98000,0,29000,165
Франклинс Бургер,55.6235861,37.4211074,ЮЗАО,,7500,,,15,20,22,,10500,98000,0,29000,165
One Price Coffee,55.559976,37.470766,ЮЗАО,,3000,,,6,0,7,,10500,98000,0,29000,165
Шоколадница,55.622521,37.4241006,ЮЗАО,,7000,,,14,19,21,,10500,98000,0,29000,165
КмКБургер,55.5714407,37.4757422,ЮЗАО,,4000,,,8,5,12,,10500,98000,0,29000,165
,55.5714282,37.4757451,ЮЗАО,,4000,,,8,5,12,,10500,98000,0,29000,165
,55.570365,37.4765095,ЮЗАО,,3500,,,7,5,16,,10500,98000,0,29000,165
Coffee Point,55.617649,37.4720639,ЮЗАО,,4500,,,9,0,6,,10500,98000,0,29000,165
Поминальная трапезная,55.6083189,37.4540987,ЮЗАО,,4000,,,8,0,1,,10500,98000,0,29000,165
Влаваше,55.618951,37.4143463,ЮЗАО,,2000,,,4,0,24,,10500,98000,0,29000,165
Cofix,55.5432209,37.4859133,ЮЗАО,,5500,,,11,6,14,,10500,98000,0,29000,165
Капучинофф,55.53102,37.5103819,ЮЗАО,,4500,,,9,0,8,,10500,98000,0,29000,165
Милано,55.6243312,37.420791,ЮЗАО,,7000,,,14,20,21,,10500,98000,0,29000,165
Франклинс Бургер,55.6038062,37.490837,ЮЗАО,,4500,,,9,21,30,,10500,98000,0,29000,165
Много лосося,55.5645561,37.4869974,ЮЗАО,,6000,,,12,4,23,,10500,98000,0,29000,165
Бургер Кинг,55.5150382,37.3508256,ЮЗАО,,4000,,,8,2,4,,10500,98000,0,29000,165
Корчма,55.5887065,37.4509547,ЮЗАО,,4000,,,8,0,11,,10500,98000,0,29000,165
Regar,55.5582221,37.5021978,ЮЗАО,,3500,,,7,6,42,,10500,98000,0,29000,165
Dobro,55.5573504,37.510729,ЮЗАО,,3000,,,6,14,37,,10500,98000,0,29000,165
Халяль,55.5904282,37.427262,ЮЗАО,,1500,,,3,3,6,,10500,98000,0,29000,165
Додо Пицца,55.5145308,37.3519975,ЮЗАО,,5000,,,10,2,4,,10500,98000,0,29000,165
Додо Пицца,55.5705029,37.4765687,ЮЗАО,,3000,,,6,5,15,,10500,98000,0,29000,165
СушиСет,55.5548278,37.503682,ЮЗАО,,7000,,,14,20,39,,10500,98000,0,29000,165
Мадина,55.5550436,37.5053326,ЮЗАО,,5500,,,11,21,39,,10500,98000,0,29000,165
Мерза Марзо,55.5553641,37.5048152,ЮЗАО,,6000,,,12,23,39,,10500,98000,0,29000,165
Hörn17,55.5563887,37.5089627,ЮЗАО,,6500,,,13,22,39,,10500,98000,0,29000,165
Ботаника,55.5555349,37.5063862,ЮЗАО,,5500,,,11,24,39,,10500,98000,0,29000,165
To Go,55.5572912,37.5097278,ЮЗАО,,2500,,,5,16,39,,10500,98000,0,29000,165
Милти,55.5571055,37.5091811,ЮЗАО,,4000,,,8,16,39,,10500,98000,0,29000,165
Здрасте,55.5572002,37.509031,ЮЗАО,,3500,,,7,16,39,,10500,98000,0,29000,165
ОриДа,55.5574082,37.5088466,ЮЗАО,,3000,,,6,16,39,,10500,98000,0,29000,165
Pizza Express 24,55.5540667,37.5128981,ЮЗАО,,7500,,,15,2,37,,10500,98000,0,29000,165
Grannar,55.5561532,37.5093568,ЮЗАО,,6500,,,13,21,39,,10500,98000,0,29000,165
Шашлык и шаурма,55.5231101,37.490998,ЮЗАО,,2000,,,4,0,0,,10500,98000,0,29000,165
Сели-Поели,55.5563576,37.5053435,ЮЗАО,,4000,,,8,27,39,,10500,98000,0,29000,165
Бэсти,55.5546585,37.5030654,ЮЗАО,,7000,,,14,17,39,,10500,98000,0,29000,165
Тандыр Сити,55.5546159,37.5031732,ЮЗАО,,7000,,,14,17,39,,10500,98000,0,29000,165
Фо Ван,55.5545644,37.503253,ЮЗАО,,7000,,,14,17,39,,10500,98000,0,29000,165
Noba,55.5630119,37.5023704,ЮЗАО,,1500,,,3,1,46,,10500,98000,0,29000,165
Ролик,55.5211197,37.3545938,ЮЗАО,,2000,,,4,0,4,,10500,98000,0,29000,165
Между булок,55.5439233,37.478225,ЮЗАО,,2000,,,4,6,14,,10500,98000,0,29000,165
Тебе и мне,55.5539381,37.5004573,ЮЗАО,,6500,,,13,6,38,,10500,98000,0,29000,165
Subway,55.6021443,37.4988265,ЮЗАО,,2500,,,5,1,25,,10500,98000,0,29000,165
,55.6018682,37.4989326,ЮЗАО,,2500,,,5,1,25,,10500,98000,0,29000,165
Самая Вкусная Шаурма,55.5556092,37.5076578,ЮЗАО,,6000,,,12,20,39,,10500,98000,0,29000,165
Coffee Moose,55.5553205,37.5132526,ЮЗАО,,6500,,,13,5,37,,10500,98000,0,29000,165
Милти,55.5916449,37.4544064,ЮЗАО,,3000,,,6,8,12,,10500,98000,0,29000,165
Бэбо Чито,55.5916705,37.4545397,ЮЗАО,,3000,,,6,8,12,,10500,98000,0,29000,165
Масисо,55.5920229,37.4559856,ЮЗАО,,3000,,,6,9,12,,10500,98000,0,29000,165
Koala,55.5920684,37.4559605,ЮЗАО,,3000,,,6,9,12,,10500,98000,0,29000,165
French Bakery,55.5916073,37.4560259,ЮЗАО,,3000,,,6,9,12,,10500,98000,0,29000,165
Котомания,55.5919019,37.4581297,ЮЗАО,,2500,,,5,10,12,,10500,98000,0,29000,165
Лавашура,55.5919851,37.4578009,ЮЗАО,,2500,,,5,10,12,,10500,98000,0,29000,165
Burger Club,55.5918346,37.4570356,ЮЗАО,,2500,,,5,10,12,,10500,98000,0,29000,165
PhoBo,55.5567102,37.4940201,ЮЗАО,,8000,,,16,1,38,,10500,98000,0,29000,165
Cyclo,55.5438963,37.4821487,ЮЗАО,,3500,,,7,8,14,,10500,98000,0,29000,165
Хинкальная,55.5438645,37.4820011,ЮЗАО,,3500,,,7,8,14,,10500,98000,0,29000,165
Варочная,55.556922,37.5021637,ЮЗАО,,5500,,,11,17,40,,10500,98000,0,29000,165
Истерика вкуса,55.5553506,37.5069792,ЮЗАО,,6000,,,12,22,39,,10500,98000,0,29000,165
Буханка,55.5562199,37.5076583,ЮЗАО,,5000,,,10,22,39,,10500,98000,0,29000,165
Вершины вкусов,55.5564482,37.5072761,ЮЗАО,,3500,,,7,22,39,,10500,98000,0,29000,165
Ris,55.5551878,37.5050982,ЮЗАО,,5500,,,11,21,39,,10500,98000,0,29000,165
Gustolife,55.555469,37.5046333,ЮЗАО,,5500,,,11,22,39,,10500,98000,0,29000,165
Шаурмак,55.5552348,37.5050228,ЮЗАО,,5500,,,11,21,39,,10500,98000,0,29000,165
Jeffrey's,55.5644138,37.4894783,ЮЗАО,,6000,,,12,4,17,,10500,98000,0,29000,165
Донер Хаус,55.5648541,37.4904378,ЮЗАО,,6000,,,12,4,17,,10500,98000,0,29000,165
Много Лосося,55.5642397,37.4885284,ЮЗАО,,6000,,,12,4,19,,10500,98000,0,29000,165
Суши мастер,55.5578234,37.5105992,ЮЗАО,,2000,,,4,12,37,,10500,98000,0,29000,165
Бутово,55.547095,37.5151274,ЮЗАО,,4000,,,8,0,3,,10500,98000,0,29000,165
Hatimaki,55.542693,37.478025,ЮЗАО,,2000,,,4,8,14,,10500,98000,0,29000,165
Hatimaki,55.5905845,37.3670205,ЮЗАО,,6000,,,12,1,5,,10500,98000,0,29000,165
Hatimaki,55.566242,37.496295,ЮЗАО,,2500,,,5,3,17,,10500,98000,0,29000,165
Hatimaki,55.516518,37.355926,ЮЗАО,,3500,,,7,0,4,,10500,98000,0,29000,165
Hatimaki,55.5932051,37.459361,ЮЗАО,,1500,,,3,8,12,,10500,98000,0,29000,165
Hatimaki,55.5674478,37.4887874,ЮЗАО,,5500,,,11,1,21,,10500,98000,0,29000,165
Сканди пицца,55.5543069,37.5134249,ЮЗАО,,7000,,,14,2,37,,10500,98000,0,29000,165
2-я Кофейная,55.5577838,37.5106569,ЮЗАО,,2500,,,5,12,37,,10500,98000,0,29000,165
Pims,55.603839,37.4916842,ЮЗАО,,4500,,,9,21,30,,10500,98000,0,29000,165
Udc Кафе,55.6041263,37.4913861,ЮЗАО,,4500,,,9,21,30,,10500,98000,0,29000,165
Воккер,55.6038481,37.4909113,ЮЗАО,,4500,,,9,21,30,,10500,98000,0,29000,165
Теремок,55.6039547,37.4911142,ЮЗАО,,4500,,,9,21,30,,10500,98000,0,29000,165
Швили,55.6040391,37.4912295,ЮЗАО,,4500,,,9,21,30,,10500,98000,0,29000,165
Шоколадница,55.6045019,37.4887159,ЮЗАО,,4500,,,9,21,30,,10500,98000,0,29000,165
Osteria Maria,55.603841,37.491969,ЮЗАО,,4500,,,9,21,30,,10500,98000,0,29000,165
Хан Плов,55.5437514,37.4773939,ЮЗАО,,2000,,,4,7,13,,10500,98000,0,29000,165
Bubble Crumbl,55.5440611,37.4781261,ЮЗАО,,1500,,,3,6,13,,10500,98000,0,29000,165
Up Sushi,55.6032918,37.4136052,ЮЗАО,,2500,,,5,2,2,,10500,98000,0,29000,165
Up Sushi,55.5446403,37.4805799,ЮЗАО,,2500,,,5,7,14,,10500,98000,0,29000,165
Up Sushi,55.5986246,37.3641371,ЮЗАО,,3000,,,6,0,12,,10500,98000,0,29000,165
Буузы,55.5630439,37.4487629,ЮЗАО,,3500,,,7,0,8,,10500,98000,0,29000,165
Заряд от Магнита,55.5568272,37.5010454,ЮЗАО,,5000,,,10,13,40,,10500,98000,0,29000,165
Yutaka,55.5571409,37.5068039,ЮЗАО,,3500,,,7,23,40,,10500,98000,0,29000,165
Alare,55.5573344,37.5072324,ЮЗАО,,3000,,,6,21,40,,10500,98000,0,29000,165
,55.6006961,37.4817835,ЮЗАО,,5500,,,11,3,26,,10500,98000,0,29000,165
,55.6009292,37.481965,ЮЗАО,,5500,,,11,3,26,,10500,98000,0,29000,165
,55.6013301,37.4824157,ЮЗАО,,5500,,,11,3,26,,10500,98000,0,29000,165
,55.603991,37.4843713,ЮЗАО,,6000,,,12,1,29,,10500,98000,0,29000,165
Панчо Пицца,55.6022011,37.4927866,ЮЗАО,,4000,,,8,18,30,,10500,98000,0,29000,165
Cofix,55.587457,37.4333872,ЮЗАО,,2000,,,4,0,6,,10500,98000,0,29000,165
,55.5921139,37.4298612,ЮЗАО,,1000,,,2,5,6,,10500,98000,0,29000,165
Captain Alex,55.5913025,37.4307845,ЮЗАО,,1500,,,3,5,6,,10500,98000,0,29000,165
Фуд-Цех,55.5917239,37.4302286,ЮЗАО,,1500,,,3,5,6,,10500,98000,0,29000,165
Up Sushi,55.5917004,37.4317902,ЮЗАО,,1000,,,2,4,6,,10500,98000,0,29000,165
Бургер Кинг,55.6188062,37.5068975,ЮЗАО,,9500,,,19,22,27,,10500,98000,0,29000,165
Теремок,55.6187629,37.5066192,ЮЗАО,,9500,,,19,22,27,,10500,98000,0,29000,165
Чудо-Тандыр,55.5407647,37.4762498,ЮЗАО,,2000,,,4,2,13,,10500,98000,0,29000,165
Додо Пицца,55.5412167,37.4769206,ЮЗАО,,2000,,,4,3,13,,10500,98000,0,29000,165
,55.5536637,37.4747513,ЮЗАО,,2000,,,4,1,4,,10500,98000,0,29000,165
Бургер Кинг,55.5927338,37.4584249,ЮЗАО,,2000,,,4,10,12,,10500,98000,0,29000,165
Up Sushi,55.5922109,37.433778,ЮЗАО,,0,,,0,4,6,,10500,98000,0,29000,165
Up Sushi,55.5558499,37.5001988,ЮЗАО,,6500,,,13,13,39,,10500,98000,0,29000,165
,55.621245,37.3910027,ЮЗАО,,500,,,1,0,0,,10500,98000,0,29000,165
Додо Пицца,55.5540139,37.474371,ЮЗАО,,2000,,,4,1,4,,10500,98000,0,29000,165
Чебурешная,55.5644736,37.4884887,ЮЗАО,,6000,,,12,4,20,,10500,98000,0,29000,165
Koala Пицца,55.5542509,37.5022799,ЮЗАО,,7000,,,14,15,39,,10500,98000,0,29000,165
Epic Pizza,55.5580946,37.5021442,ЮЗАО,,3500,,,7,6,42,,10500,98000,0,29000,165
КОФЕ КРУТ!,55.5323613,37.3786567,ЮЗАО,,1000,,,2,0,1,,10500,98000,0,29000,165
,55.6047661,37.4903688,ЮЗАО,,4000,,,8,20,30,,10500,98000,0,29000,165
Заверни,55.5567772,37.5022469,ЮЗАО,,5500,,,11,18,40,,10500,98000,0,29000,165
,55.6042425,37.4897321,ЮЗАО,,3500,,,7,21,30,,10500,98000,0,29000,165
,55.5990482,37.516213,ЮЗАО,,4500,,,9,0,1,,10500,98000,0,29000,165
Rostic's,55.6128728,37.7199359,ЮАО,,12500,,,25,5,46,,9100,87000,0,24000,192
Manana,55.616142,37.7201561,ЮАО,,7500,,,15,2,52,,9100,87000,0,24000,192
Вкусно — и точка,55.6121254,37.7319932,ЮАО,,7000,,,14,9,47,,9100,87000,0,24000,192
,55.6182369,37.6835869,ЮАО,,2000,,,4,1,5,,9100,87000,0,24000,192
Эгриси,55.6116873,37.6963392,ЮАО,,5000,,,10,6,11,,9100,87000,0,24000,192
Шахин-Шах,55.6236015,37.7051028,ЮАО,,5000,,,10,4,23,,9100,87000,0,24000,192
Вкусно — и точка,55.5847579,37.7205782,ЮВАО,,1500,,,3,7,19,,8500,85000,0,21000,178
,55.6264956,37.8003361,ЮАО,,3000,,,6,1,5,,9100,87000,0,24000,192
,55.6306283,37.7992384,ЮАО,,5000,,,10,0,5,,9100,87000,0,24000,192
Хан-Кебаб,55.6246232,37.7160184,ЮАО,,6500,,,13,0,33,,9100,87000,0,24000,192
Вкусно — и точка,55.6122238,37.7181004,ЮАО,,11500,,,23,6,44,,9100,87000,0,24000,192
Родник,55.6006898,37.7958387,ЮАО,,3000,,,6,1,1,,9100,87000,0,24000,192
МетропольХолл,55.5484535,37.7736415,ЮВАО,,2000,,,4,3,4,,8500,85000,0,21000,178
Пиццбург,55.6151105,37.7207529,ЮАО,,8000,,,16,3,53,,9100,87000,0,24000,192
Ягодка,55.5852454,37.7325671,ЮВАО,,2500,,,5,5,21,,8500,85000,0,21000,178
Кафе де Пари,55.546241,37.7088364,ЮВАО,,3500,,,7,2,14,,8500,85000,0,21000,178
Город Ветров,55.6188394,37.730136,ЮАО,,3500,,,7,1,33,,9100,87000,0,24000,192
Pronto,55.551868,37.7027801,ЮВАО,,3500,,,7,3,17,,8500,85000,0,21000,178
Пончики,55.5525434,37.7038144,ЮВАО,,3000,,,6,3,18,,8500,85000,0,21000,178
,55.5617548,37.8380106,ЮВАО,,1500,,,3,0,2,,8500,85000,0,21000,178
,55.5889976,37.7543885,ЮВАО,,5000,,,10,1,10,,8500,85000,0,21000,178
Коробово,55.5335452,37.8159808,ЮВАО,,1000,,,2,1,8,,8500,85000,0,21000,178
Якитория,55.6095966,37.7202281,ЮАО,,12500,,,25,11,50,,9100,87000,0,24000,192
Якитория,55.5546855,37.7084153,ЮВАО,,4500,,,9,3,12,,8500,85000,0,21000,178
Rostic's,55.5154476,37.7104678,ЮВАО,,0,,,0,0,0,,8500,85000,0,21000,178
Кофеин,55.6256162,37.7599365,ЮАО,,4000,,,8,1,8,,9100,87000,0,24000,192
Нияма,55.6125668,37.7202351,ЮАО,,13000,,,26,6,45,,9100,87000,0,24000,192
,55.5611279,37.8295381,ЮВАО,,1000,,,2,1,7,,8500,85000,0,21000,178
Хинкальная,55.561148,37.8285643,ЮВАО,,1000,,,2,1,9,,8500,85000,0,21000,178
Магбургер,55.5588263,37.7758495,ЮВАО,,2500,,,5,0,0,,8500,85000,0,21000,178
,55.5334487,37.8130263,ЮВАО,,1000,,,2,2,7,,8500,85000,0,21000,178
Море Суши,55.6061622,37.7183143,ЮАО,,9000,,,18,2,45,,9100,87000,0,24000,192
Столовая,55.5046349,37.752482,ЮВАО,,2000,,,4,0,2,,8500,85000,0,21000,178
,55.6245397,37.8413084,ЮАО,,1000,,,2,0,0,,9100,87000,0,24000,192
Вкусно — и точка,55.6247555,37.7095457,ЮАО,,5500,,,11,4,30,,9100,87000,0,24000,192
Столовая,55.5415024,37.7609922,ЮВАО,,0,,,0,0,2,,8500,85000,0,21000,178
,55.6089437,37.7868158,ЮАО,,2000,,,4,1,1,,9100,87000,0,24000,192
Бургер Кинг,55.5462896,37.7102694,ЮВАО,,3000,,,6,3,15,,8500,85000,0,21000,178
"Кафе ""Лагуна""",55.5751157,37.8176803,ЮВАО,,0,,,0,0,0,,8500,85000,0,21000,178
Московский,55.6202807,37.7211499,ЮАО,,6000,,,12,1,43,,9100,87000,0,24000,192
Газ Мяс,55.5514969,37.6835347,ЮВАО,,2000,,,4,1,6,,8500,85000,0,21000,178
Помпончик,55.5424511,37.7729549,ЮВАО,,500,,,1,0,5,,8500,85000,0,21000,178
Resto7,55.6187057,37.7501963,ЮАО,,6000,,,12,4,19,,9100,87000,0,24000,192
Бургер Кинг,55.6195812,37.7524993,ЮАО,,5000,,,10,4,17,,9100,87000,0,24000,192
Теремок,55.6097906,37.7202715,ЮАО,,13000,,,26,11,49,,9100,87000,0,24000,192
Бургер Кинг,55.6094573,37.7201428,ЮАО,,12500,,,25,10,51,,9100,87000,0,24000,192
Rostic's,55.6098663,37.7200838,ЮАО,,13000,,,26,12,49,,9100,87000,0,24000,192
,55.6114934,37.7304532,ЮАО,,7000,,,14,9,51,,9100,87000,0,24000,192
Гранат,55.5992843,37.7381136,ЮВАО,,2000,,,4,2,34,,8500,85000,0,21000,178
Кофе Хауз,55.6166759,37.7154808,ЮАО,,7000,,,14,5,49,,9100,87000,0,24000,192
Орехово пицца,55.6239919,37.7075953,ЮАО,,4500,,,9,5,28,,9100,87000,0,24000,192
"Чайхана ""В гости""",55.611477,37.7195129,ЮАО,,12000,,,24,13,42,,9100,87000,0,24000,192
Папа Джонс,55.6264677,37.743623,ЮАО,,7000,,,14,0,9,,9100,87000,0,24000,192
Бакинский Бульвар,55.6189074,37.7829326,ЮАО,,5000,,,10,1,4,,9100,87000,0,24000,192
Subway,55.5822419,37.7067833,ЮВАО,,500,,,1,1,3,,8500,85000,0,21000,178
Чайхона,55.6092819,37.7227419,ЮАО,,13000,,,26,8,52,,9100,87000,0,24000,192
Grut,55.618776,37.7147555,ЮАО,,8500,,,17,11,44,,9100,87000,0,24000,192
Чайхана София,55.6143475,37.7566263,ЮАО,,5500,,,11,0,13,,9100,87000,0,24000,192
Zafferano,55.5868166,37.7239569,ЮВАО,,2000,,,4,12,20,,8500,85000,0,21000,178
Старая Прага,55.5555688,37.708897,ЮВАО,,3000,,,6,3,11,,8500,85000,0,21000,178
,55.5121399,37.7576388,ЮВАО,,1000,,,2,0,4,,8500,85000,0,21000,178
Шоколадница,55.609748,37.7200656,ЮАО,,13000,,,26,11,49,,9100,87000,0,24000,192
,55.6258061,37.7994897,ЮАО,,2500,,,5,1,5,,9100,87000,0,24000,192
Хинкальный дом Греми,55.625775,37.7217729,ЮАО,,4000,,,8,4,29,,9100,87000,0,24000,192
Сушишоп,55.5415717,37.7237424,ЮВАО,,4000,,,8,0,5,,8500,85000,0,21000,178
Орлиное гнездо,55.6249373,37.7083318,ЮАО,,6000,,,12,5,29,,9100,87000,0,24000,192
,55.6198521,37.7181606,ЮАО,,8500,,,17,5,43,,9100,87000,0,24000,192
Антикафе mojo,55.5613346,37.6846234,ЮВАО,,1000,,,2,1,5,,8500,85000,0,21000,178
Crop.,55.6146135,37.6917461,ЮАО,,4500,,,9,0,10,,9100,87000,0,24000,192
Бургер Кинг,55.6256314,37.7596982,ЮАО,,4000,,,8,1,8,,9100,87000,0,24000,192
Клюква,55.5475074,37.772568,ЮВАО,,2000,,,4,3,5,,8500,85000,0,21000,178
Cofix,55.5850665,37.7203049,ЮВАО,,1500,,,3,7,19,,8500,85000,0,21000,178
,55.6068477,37.73397,ЮАО,,5500,,,11,4,51,,9100,87000,0,24000,192
Koza nostra,55.6046187,37.7392832,ЮАО,,6000,,,12,4,34,,9100,87000,0,24000,192
,55.592716,37.752886,ЮВАО,,4500,,,9,3,14,,8500,85000,0,21000,178
Донер на углях,55.5925256,37.7539811,ЮВАО,,4500,,,9,1,12,,8500,85000,0,21000,178
Ной,55.5937417,37.74739,ЮВАО,,3000,,,6,3,15,,8500,85000,0,21000,178
Орхан,55.6026312,37.740549,ЮАО,,6500,,,13,1,30,,9100,87000,0,24000,192
Суши Wok,55.5900495,37.7632271,ЮВАО,,2500,,,5,1,7,,8500,85000,0,21000,178
Бистро,55.5936986,37.747576,ЮВАО,,3000,,,6,3,15,,8500,85000,0,21000,178
Бургер Кинг,55.5861675,37.7366162,ЮВАО,,3000,,,6,5,20,,8500,85000,0,21000,178
Бургер Кинг,55.5850432,37.7243213,ЮВАО,,1500,,,3,12,20,,8500,85000,0,21000,178
Суши Wok,55.6102164,37.7478172,ЮАО,,8500,,,17,1,27,,9100,87000,0,24000,192
Пекарня Донер-кебаб,55.6048819,37.737397,ЮАО,,6000,,,12,4,39,,9100,87000,0,24000,192
,55.6211819,37.7380812,ЮАО,,5500,,,11,0,18,,9100,87000,0,24000,192
,55.548528,37.7720958,ЮВАО,,3000,,,6,3,4,,8500,85000,0,21000,178
37/37,55.5994473,37.7379172,ЮВАО,,2000,,,4,2,33,,8500,85000,0,21000,178
На Развилке,55.591472,37.7609187,ЮВАО,,3000,,,6,1,9,,8500,85000,0,21000,178
Кафе Тепло,55.5853717,37.7337543,ЮВАО,,3000,,,6,5,21,,8500,85000,0,21000,178
,55.6064695,37.7422993,ЮАО,,6500,,,13,3,36,,9100,87000,0,24000,192
Каса Мария,55.5862228,37.7365007,ЮВАО,,3000,,,6,5,20,,8500,85000,0,21000,178
,55.6120804,37.7214115,ЮАО,,12000,,,24,10,46,,9100,87000,0,24000,192
Домино'c,55.6144446,37.7433799,ЮАО,,8500,,,17,4,31,,9100,87000,0,24000,192
,55.6232895,37.7423515,ЮАО,,7500,,,15,1,15,,9100,87000,0,24000,192
Nabat Palace,55.6049185,37.7449417,ЮАО,,6000,,,12,1,23,,9100,87000,0,24000,192
,55.6080092,37.7559716,ЮАО,,5000,,,10,0,7,,9100,87000,0,24000,192
Суши сет,55.6145409,37.7469824,ЮАО,,10000,,,20,4,25,,9100,87000,0,24000,192
Бургер Кинг,55.6072214,37.7336828,ЮАО,,6500,,,13,4,53,,9100,87000,0,24000,192
,55.5291224,37.8146115,ЮВАО,,1000,,,2,1,8,,8500,85000,0,21000,178
SkyPort,55.5329425,37.8111783,ЮВАО,,1000,,,2,1,6,,8500,85000,0,21000,178
Донер на углях,55.6172091,37.752473,ЮАО,,5000,,,10,4,14,,9100,87000,0,24000,192
Чайхана Чай Хаус,55.6035406,37.7308461,ЮАО,,4500,,,9,2,53,,9100,87000,0,24000,192
Домино'c,55.6005237,37.7208921,ЮАО,,6500,,,13,4,29,,9100,87000,0,24000,192
Планета Суши,55.5865949,37.7240413,ЮВАО,,2000,,,4,14,20,,8500,85000,0,21000,178
IL Патио,55.5867587,37.724213,ЮВАО,,2000,,,4,12,20,,8500,85000,0,21000,178
Планета Суши,55.6119565,37.7319807,ЮАО,,7000,,,14,9,47,,9100,87000,0,24000,192
IL Патио,55.6117626,37.7324474,ЮАО,,7000,,,14,9,50,,9100,87000,0,24000,192
Kuzina,55.6098664,37.7323149,ЮАО,,7500,,,15,8,53,,9100,87000,0,24000,192
Кафе-пиццерия,55.6046605,37.7127564,ЮАО,,5500,,,11,3,33,,9100,87000,0,24000,192
Бургер Кинг,55.622108,37.7135646,ЮАО,,8500,,,17,13,36,,9100,87000,0,24000,192
Бургер Кинг,55.5673834,37.6910759,ЮВАО,,1000,,,2,3,6,,8500,85000,0,21000,178
Теремок,55.6219263,37.7135056,ЮАО,,8500,,,17,13,36,,9100,87000,0,24000,192
Бургер Кинг,55.5952266,37.7387295,ЮВАО,,3000,,,6,4,20,,8500,85000,0,21000,178
Сушисет и Пицца,55.5585848,37.8137416,ЮВАО,,6000,,,12,9,13,,8500,85000,0,21000,178
Cofix,55.6214696,37.7136907,ЮАО,,9000,,,18,13,36,,9100,87000,0,24000,192
Шоколадница,55.5869651,37.7245712,ЮВАО,,2000,,,4,12,20,,8500,85000,0,21000,178
Донеретто,55.6048389,37.7138879,ЮАО,,5000,,,10,3,35,,9100,87000,0,24000,192
Ни пива ни мяса,55.6297602,37.7637631,ЮАО,,4500,,,9,0,3,,9100,87000,0,24000,192
,55.6223839,37.746225,ЮАО,,6500,,,13,1,17,,9100,87000,0,24000,192
Rostic's,55.6134647,37.7298405,ЮАО,,7000,,,14,8,43,,9100,87000,0,24000,192
Тандыр,55.6148564,37.7126999,ЮАО,,7500,,,15,2,43,,9100,87000,0,24000,192
Такеши,55.5430656,37.7104088,ЮВАО,,1000,,,2,0,11,,8500,85000,0,21000,178
Уют,55.5955425,37.7394355,ЮВАО,,3000,,,6,4,20,,8500,85000,0,21000,178
Кофейня,55.5636055,37.6870435,ЮВАО,,2000,,,4,1,5,,8500,85000,0,21000,178
Семейные традиции,55.5512734,37.6926988,ЮВАО,,2500,,,5,1,14,,8500,85000,0,21000,178
Библиотека,55.5502219,37.6928303,ЮВАО,,2000,,,4,1,14,,8500,85000,0,21000,178
Пицца и Суши,55.5570424,37.8123194,ЮВАО,,5000,,,10,6,12,,8500,85000,0,21000,178
Пончиковая,55.6165959,37.6862393,ЮАО,,2000,,,4,2,10,,9100,87000,0,24000,192
Флоренция,55.6079933,37.7424815,ЮАО,,8000,,,16,1,35,,9100,87000,0,24000,192
,55.6010337,37.7964817,ЮАО,,3000,,,6,1,1,,9100,87000,0,24000,192
Мой тандыр,55.6168134,37.7278865,ЮАО,,3500,,,7,1,41,,9100,87000,0,24000,192
Караван,55.625832,37.7221276,ЮАО,,4000,,,8,4,29,,9100,87000,0,24000,192
Тандыр,55.6257972,37.7218158,ЮАО,,4000,,,8,4,29,,9100,87000,0,24000,192
Шаурма в пите,55.6098255,37.7163836,ЮАО,,13000,,,26,8,34,,9100,87000,0,24000,192
,55.6195969,37.7525841,ЮАО,,5000,,,10,4,17,,9100,87000,0,24000,192
Додо Пицца,55.6104578,37.7397254,ЮАО,,8500,,,17,1,33,,9100,87000,0,24000,192
Сушишоп,55.5870042,37.7348614,ЮВАО,,3000,,,6,4,25,,8500,85000,0,21000,178
,55.5831917,37.7437355,ЮВАО,,1000,,,2,0,8,,8500,85000,0,21000,178
Кафетерий,55.5960253,37.7409356,ЮВАО,,4000,,,8,4,16,,8500,85000,0,21000,178
Вкус Востока,55.6263101,37.7494662,ЮАО,,7500,,,15,0,12,,9100,87000,0,24000,192
Шашлык люля,55.6126632,37.6956507,ЮАО,,5000,,,10,6,12,,9100,87000,0,24000,192
Чайхана №5,55.5963312,37.77492,ЮВАО,,2000,,,4,0,0,,8500,85000,0,21000,178
Coffee Like,55.566608,37.689626,ЮВАО,,1000,,,2,3,5,,8500,85000,0,21000,178
Алло! Пицца,55.6216213,37.7255264,ЮАО,,6000,,,12,1,32,,9100,87000,0,24000,192
Domino Pizza,55.5476765,37.7134898,ЮВАО,,5500,,,11,2,17,,8500,85000,0,21000,178
Мясо & Рыба,55.6210224,37.7135844,ЮАО,,9500,,,19,14,37,,9100,87000,0,24000,192
Цоколь,55.6101125,37.7082638,ЮАО,,6000,,,12,1,34,,9100,87000,0,24000,192
,55.6190667,37.7819542,ЮАО,,5000,,,10,1,4,,9100,87000,0,24000,192
,55.495622,37.8456098,ЮВАО,,1000,,,2,0,1,,8500,85000,0,21000,178
,55.5953291,37.7387596,ЮВАО,,3000,,,6,4,20,,8500,85000,0,21000,178
Суши WOK,55.5592014,37.8122248,ЮВАО,,5500,,,11,9,12,,8500,85000,0,21000,178
Вкусно — и точка,55.6222049,37.7132079,ЮАО,,8500,,,17,13,36,,9100,87000,0,24000,192
Cinnabon,55.6213008,37.7135566,ЮАО,,9000,,,18,14,36,,9100,87000,0,24000,192
Донер кебаб №1,55.6023046,37.7143753,ЮАО,,6500,,,13,3,30,,9100,87000,0,24000,192
Роллофф,55.5974721,37.7230704,ЮВАО,,4500,,,9,5,22,,8500,85000,0,21000,178
СушиStore,55.6104559,37.7222845,ЮАО,,13000,,,26,11,46,,9100,87000,0,24000,192
,55.6072099,37.7339877,ЮАО,,6500,,,13,4,52,,9100,87000,0,24000,192
,55.5923842,37.748295,ЮВАО,,3500,,,7,4,15,,8500,85000,0,21000,178
,55.5925231,37.7484065,ЮВАО,,3000,,,6,4,15,,8500,85000,0,21000,178
Деликатесса,55.5998518,37.7246446,ЮВАО,,6000,,,12,10,30,,8500,85000,0,21000,178
,55.6097113,37.7221718,ЮАО,,13000,,,26,10,49,,9100,87000,0,24000,192
Beerstream,55.6008598,37.7239662,ЮАО,,5000,,,10,8,37,,9100,87000,0,24000,192
Раф & Стафф,55.6006902,37.724077,ЮАО,,5000,,,10,8,33,,9100,87000,0,24000,192
,55.5975168,37.7234016,ЮВАО,,4500,,,9,5,24,,8500,85000,0,21000,178
,55.604638,37.7072456,ЮАО,,5000,,,10,0,18,,9100,87000,0,24000,192
Малин,55.623052,37.7062911,ЮАО,,5000,,,10,5,27,,9100,87000,0,24000,192
Бургер Кинг,55.6144993,37.7426414,ЮАО,,10000,,,20,4,33,,9100,87000,0,24000,192
Бургер Кинг,55.6124,37.7327,ЮАО,,7000,,,14,9,48,,9100,87000,0,24000,192
Бургер Кинг,55.5459,37.6992,ЮВАО,,2000,,,4,3,17,,8500,85000,0,21000,178
Кинг Авто,55.5673168,37.6911352,ЮВАО,,1000,,,2,3,6,,8500,85000,0,21000,178
Матрёшка,55.5583019,37.8122963,ЮВАО,,4500,,,9,9,12,,8500,85000,0,21000,178
Академия,55.5567438,37.8138194,ЮВАО,,5500,,,11,8,12,,8500,85000,0,21000,178
Донер Шаурма,55.5588677,37.8156416,ЮВАО,,6000,,,12,10,14,,8500,85000,0,21000,178
Баррель,55.5588738,37.8163657,ЮВАО,,5500,,,11,8,14,,8500,85000,0,21000,178
Moose,55.6044547,37.721909,ЮАО,,6000,,,12,3,47,,9100,87000,0,24000,192
Буханка,55.6047896,37.7217373,ЮАО,,6500,,,13,3,48,,9100,87000,0,24000,192
,55.6295075,37.7410919,ЮАО,,7500,,,15,0,5,,9100,87000,0,24000,192
Vasilchuki Chaihona №1,55.6208767,37.713629,ЮАО,,9500,,,19,14,38,,9100,87000,0,24000,192
"Чайхона ""Уют""",55.53704,37.7216014,ЮВАО,,4000,,,8,0,6,,8500,85000,0,21000,178
Донер,55.6104954,37.7399796,ЮАО,,8500,,,17,1,33,,9100,87000,0,24000,192
Фуд-Корт №1AS,55.5553524,37.7090263,ЮВАО,,3500,,,7,3,11,,8500,85000,0,21000,178
POMODORO,55.5099272,37.7832471,ЮВАО,,1000,,,2,0,2,,8500,85000,0,21000,178
Пекарня как дома,55.6103294,37.7463519,ЮАО,,10000,,,20,1,32,,9100,87000,0,24000,192
,55.5520511,37.7025195,ЮВАО,,3500,,,7,3,17,,8500,85000,0,21000,178
Гриль Хаус,55.5547664,37.7098317,ЮВАО,,3500,,,7,3,12,,8500,85000,0,21000,178
,55.6035141,37.730851,ЮАО,,4500,,,9,2,53,,9100,87000,0,24000,192
,55.5973514,37.7201935,ЮВАО,,6000,,,12,2,21,,8500,85000,0,21000,178
Rostic's,55.6144486,37.7437041,ЮАО,,8500,,,17,4,30,,9100,87000,0,24000,192
Чайхана №5,55.6104685,37.7851409,ЮАО,,2000,,,4,1,3,,9100,87000,0,24000,192
,55.6151016,37.6836111,ЮАО,,0,,,0,1,10,,9100,87000,0,24000,192
Starfix,55.6145027,37.7427163,ЮАО,,10000,,,20,4,33,,9100,87000,0,24000,192
Farinaki,55.5993414,37.7260812,ЮВАО,,6000,,,12,8,34,,8500,85000,0,21000,178
,55.600465,37.7205504,ЮАО,,7000,,,14,4,26,,9100,87000,0,24000,192
SUШI,55.6000695,37.7261241,ЮАО,,6000,,,12,6,37,,9100,87000,0,24000,192
Stars Coffee,55.6206236,37.7137146,ЮАО,,9000,,,18,15,41,,9100,87000,0,24000,192
One Price Coffee,55.6196393,37.7517835,ЮАО,,5000,,,10,4,17,,9100,87000,0,24000,192
One Price Coffee,55.6208662,37.7146107,ЮАО,,9500,,,19,15,40,,9100,87000,0,24000,192
,55.614991,37.7119735,ЮАО,,7000,,,14,2,44,,9100,87000,0,24000,192
,55.6216529,37.7259766,ЮАО,,6000,,,12,1,32,,9100,87000,0,24000,192
Моремания,55.6245947,37.7094716,ЮАО,,5500,,,11,5,30,,9100,87000,0,24000,192
,55.6313472,37.8084215,ЮАО,,5500,,,11,1,4,,9100,87000,0,24000,192
,55.6320239,37.8077427,ЮАО,,5000,,,10,1,4,,9100,87000,0,24000,192
Расторгуевъ,55.5477473,37.6838632,ЮВАО,,2000,,,4,2,8,,8500,85000,0,21000,178
,55.5479051,37.6839262,ЮВАО,,2000,,,4,2,8,,8500,85000,0,21000,178
,55.5482306,37.6849803,ЮВАО,,2000,,,4,2,10,,8500,85000,0,21000,178
Граф,55.5378178,37.7168879,ЮВАО,,3500,,,7,0,5,,8500,85000,0,21000,178
Здрасте,55.6028835,37.7328698,ЮАО,,5000,,,10,3,43,,9100,87000,0,24000,192
Farsh,55.5867405,37.7251732,ЮВАО,,2000,,,4,12,20,,8500,85000,0,21000,178
,55.559462,37.8185571,ЮВАО,,5000,,,10,3,14,,8500,85000,0,21000,178
Додо Пицца,55.5990846,37.7250083,ЮВАО,,6000,,,12,8,30,,8500,85000,0,21000,178
One Price Coffee,55.5453915,37.699019,ЮВАО,,2000,,,4,3,17,,8500,85000,0,21000,178
У дедушки Ау,55.5839631,37.7354132,ЮВАО,,2000,,,4,4,21,,8500,85000,0,21000,178
Крошка Картошка,55.585076,37.722888,ЮВАО,,1500,,,3,12,20,,8500,85000,0,21000,178
Крошка Картошка,55.566486,37.690852,ЮВАО,,1000,,,2,3,6,,8500,85000,0,21000,178
Крошка Картошка,55.5453141,37.6993141,ЮВАО,,2000,,,4,3,15,,8500,85000,0,21000,178
Крошка Картошка,55.6092735,37.7199751,ЮАО,,12500,,,25,10,53,,9100,87000,0,24000,192
Крошка Картошка,55.6212568,37.7139804,ЮАО,,9500,,,19,14,36,,9100,87000,0,24000,192
Крошка Картошка,55.612261,37.7326298,ЮАО,,7000,,,14,9,48,,9100,87000,0,24000,192
,55.5054418,37.7654758,ЮВАО,,0,,,0,2,4,,8500,85000,0,21000,178
Вкусно — и точка,55.580819,37.7031791,ЮВАО,,2500,,,5,1,1,,8500,85000,0,21000,178
Усадьба Горки,55.5076891,37.7680822,ЮВАО,,0,,,0,2,4,,8500,85000,0,21000,178
Стардогs,55.6214628,37.7139348,ЮАО,,9500,,,19,13,36,,9100,87000,0,24000,192
Донер хаус,55.594105,37.7401992,ЮВАО,,3000,,,6,4,18,,8500,85000,0,21000,178
,55.6013296,37.7360386,ЮАО,,3500,,,7,3,37,,9100,87000,0,24000,192
Эзо,55.586383,37.724111,ЮВАО,,2000,,,4,14,20,,8500,85000,0,21000,178
One Price Coffee,55.5879477,37.7238524,ЮВАО,,2000,,,4,8,20,,8500,85000,0,21000,178
Gagawa,55.6217404,37.7134354,ЮАО,,8500,,,17,13,36,,9100,87000,0,24000,192
Метрополь Холл,55.5484539,37.7736099,ЮВАО,,2000,,,4,3,4,,8500,85000,0,21000,178
Франклинс Бургер,55.5878138,37.7238777,ЮВАО,,2000,,,4,8,20,,8500,85000,0,21000,178
CofeFest,55.6124231,37.7083665,ЮАО,,6000,,,12,1,36,,9100,87000,0,24000,192
Cofix,55.5851397,37.7227801,ЮВАО,,1500,,,3,12,20,,8500,85000,0,21000,178
Cofix,55.6123822,37.7328578,ЮАО,,7000,,,14,9,48,,9100,87000,0,24000,192
Friends Only,55.5129657,37.6861513,ЮВАО,,2000,,,4,0,0,,8500,85000,0,21000,178
Здрасте,55.5328177,37.7170032,ЮВАО,,1000,,,2,1,4,,8500,85000,0,21000,178
boooop,55.563804,37.7078817,ЮВАО,,0,,,0,0,3,,8500,85000,0,21000,178
Cofix,55.6218559,37.7848921,ЮАО,,5000,,,10,0,3,,9100,87000,0,24000,192
One Price Coffee,55.6115114,37.7317865,ЮАО,,7000,,,14,9,50,,9100,87000,0,24000,192
Edoko,55.5872524,37.7237806,ЮВАО,,2000,,,4,12,20,,8500,85000,0,21000,178
Шоколадница,55.5851672,37.7220436,ЮВАО,,1500,,,3,12,20,,8500,85000,0,21000,178
Шоколадница,55.6212301,37.7146139,ЮАО,,9500,,,19,15,38,,9100,87000,0,24000,192
Каша,55.6041441,37.7240105,ЮАО,,6000,,,12,2,49,,9100,87000,0,24000,192
,55.6058176,37.7335028,ЮАО,,4500,,,9,6,51,,9100,87000,0,24000,192
Мацони Тайм,55.6057699,37.7336423,ЮАО,,4000,,,8,6,51,,9100,87000,0,24000,192
Шаверма Просто Вася,55.605107,37.7379923,ЮАО,,6000,,,12,4,35,,9100,87000,0,24000,192
Чайхана Танья,55.6173811,37.7153978,ЮАО,,7500,,,15,2,49,,9100,87000,0,24000,192
Весна,55.5074246,37.7681517,ЮВАО,,0,,,0,2,4,,8500,85000,0,21000,178
Моккано,55.561522,37.703128,ЮВАО,,0,,,0,0,9,,8500,85000,0,21000,178
Вкусно и точка,55.5459681,37.6996686,ЮВАО,,1500,,,3,3,15,,8500,85000,0,21000,178
Додо Пицца,55.6027633,37.7139213,ЮАО,,6000,,,12,3,30,,9100,87000,0,24000,192
,55.4928918,37.8327332,ЮВАО,,0,,,0,0,1,,8500,85000,0,21000,178
Пан Круассан,55.6213129,37.7139402,ЮАО,,9500,,,19,14,36,,9100,87000,0,24000,192
Стардогs,55.6276739,37.7850441,ЮАО,,0,,,0,0,6,,9100,87000,0,24000,192
Додо Пицца,55.5293516,37.7226332,ЮВАО,,0,,,0,0,3,,8500,85000,0,21000,178
Додо Пицца,55.5468695,37.7103017,ЮВАО,,3500,,,7,3,16,,8500,85000,0,21000,178
Додо Пицца,55.5895159,37.7525666,ЮВАО,,5000,,,10,1,11,,8500,85000,0,21000,178
Додо Пицца,55.5600869,37.8118703,ЮВАО,,5500,,,11,6,12,,8500,85000,0,21000,178
Додо Пицца,55.6259925,37.7241245,ЮАО,,2500,,,5,4,28,,9100,87000,0,24000,192
Бургер Кинг,55.5519221,37.7027849,ЮВАО,,3500,,,7,3,17,,8500,85000,0,21000,178
,55.6260027,37.724044,ЮАО,,2500,,,5,4,28,,9100,87000,0,24000,192
Между булок,55.5567724,37.8200054,ЮВАО,,3500,,,7,0,14,,8500,85000,0,21000,178
Между булок,55.5513501,37.6835828,ЮВАО,,2000,,,4,1,6,,8500,85000,0,21000,178
Hatimaki,55.5326761,37.7190444,ЮВАО,,1000,,,2,1,4,,8500,85000,0,21000,178
Up Sushi,55.5562627,37.8075252,ЮВАО,,4000,,,8,0,12,,8500,85000,0,21000,178
Up Sushi,55.5588764,37.8161163,ЮВАО,,6000,,,12,9,14,,8500,85000,0,21000,178
Up Sushi,55.5270441,37.8233045,ЮВАО,,0,,,0,3,7,,8500,85000,0,21000,178
Сушитека,55.5587126,37.8137236,ЮВАО,,6000,,,12,9,13,,8500,85000,0,21000,178
Up Sushi,55.4949823,37.7385762,ЮВАО,,500,,,1,0,0,,8500,85000,0,21000,178
Surf Coffee,55.5999491,37.7262649,ЮВАО,,6000,,,12,6,37,,8500,85000,0,21000,178
Шашлык на углях,55.5291415,37.8146281,ЮВАО,,1000,,,2,1,8,,8500,85000,0,21000,178
Здрасте,55.5288095,37.8233736,ЮВАО,,0,,,0,2,8,,8500,85000,0,21000,178
Пури Нури,55.5259124,37.823416,ЮВАО,,0,,,0,2,6,,8500,85000,0,21000,178
,55.5264714,37.8221224,ЮВАО,,0,,,0,3,8,,8500,85000,0,21000,178
,55.6123538,37.6974295,ЮАО,,5000,,,10,6,13,,9100,87000,0,24000,192
Стардогs,55.6125027,37.697856,ЮАО,,5000,,,10,6,13,,9100,87000,0,24000,192
,55.612527,37.6967162,ЮАО,,5000,,,10,6,12,,9100,87000,0,24000,192
,55.6126418,37.6966633,ЮАО,,5500,,,11,6,12,,9100,87000,0,24000,192
Ореховый бульвар,55.6126516,37.6956631,ЮАО,,5000,,,10,6,12,,9100,87000,0,24000,192
Креветка,55.6517026,37.5271538,ЮЗАО,,5000,,,10,2,48,,10500,98000,0,29000,165
Vasilchuki Chaihona №1,55.7241782,37.6629702,ЦАО,,2500,,,5,2,62,,12500,110000,0,45000,342
Тануки,55.721646,37.664423,ЦАО,,2000,,,4,1,48,,12500,110000,0,45000,342
Хоумбар,55.7246937,37.6645419,ЦАО,,4000,,,8,2,69,,12500,110000,0,45000,342
Com,55.7682803,37.6446178,ЦАО,,4500,,,9,29,309,,12500,110000,0,45000,342
Rostic's,55.6537689,37.620673,ЦАО,,7000,,,14,16,44,,12500,110000,0,45000,342
Вкусно — и точка,55.6675564,37.6585425,ЦАО,,4500,,,9,2,30,,12500,110000,0,45000,342
Шоколадница,55.6866726,37.5729914,ЦАО,,6500,,,13,11,81,,12500,110000,0,45000,342
Джорджия,55.6408762,37.6034912,ЮАО,,8500,,,17,9,24,,9100,87000,0,24000,192
Подъезд,55.6567323,37.5973739,ЦАО,,6000,,,12,1,34,,12500,110000,0,45000,342
Тануки,55.7285166,37.6791548,ЦАО,,4500,,,9,7,40,,12500,110000,0,45000,342
Шоколадница,55.760415,37.6144665,ЦАО,,5000,,,10,60,458,,12500,110000,0,45000,342
Вареничная №1,55.7322108,37.6651231,ЦАО,,9000,,,18,27,117,,12500,110000,0,45000,342
Грабли,55.7413227,37.6287265,ЦАО,,5000,,,10,61,214,,12500,110000,0,45000,342
Вкусно — и точка,55.7409715,37.6254376,ЦАО,,4500,,,9,48,231,,12500,110000,0,45000,342
True Burgers,55.7464981,37.5609638,ЦАО,,9500,,,19,12,127,,12500,110000,0,45000,342
,55.6436251,37.5261032,ЮЗАО,,6500,,,13,14,61,,10500,98000,0,29000,165
Крошка Картошка,55.6437462,37.5262148,ЮЗАО,,6500,,,13,15,62,,10500,98000,0,29000,165
Планета,55.6458584,37.5175147,ЮЗАО,,4500,,,9,13,39,,10500,98000,0,29000,165
IL Патио,55.6336014,37.6241498,ЮАО,,6000,,,12,2,6,,9100,87000,0,24000,192
Rostic's,55.633543,37.6237773,ЮАО,,6000,,,12,2,6,,9100,87000,0,24000,192
Вкусно — и точка,55.6537687,37.6205746,ЦАО,,7000,,,14,16,44,,12500,110000,0,45000,342
Вкусно — и точка,55.7459087,37.566261,ЦАО,,9500,,,19,63,143,,12500,110000,0,45000,342
Крошка Картошка,55.6560377,37.5410692,ЮЗАО,,6000,,,12,16,48,,10500,98000,0,29000,165
,55.6559118,37.5416443,ЮЗАО,,6000,,,12,16,47,,10500,98000,0,29000,165
Наполеон,55.6785684,37.5328295,ЮЗАО,,7000,,,14,5,29,,10500,98000,0,29000,165
TGI Fridays,55.6715065,37.5534321,ЦАО,,7500,,,15,24,62,,12500,110000,0,45000,342
Rostic's,55.6713304,37.5546714,ЦАО,,7000,,,14,24,65,,12500,110000,0,45000,342
Шоколадница,55.6715942,37.5534398,ЦАО,,7000,,,14,24,62,,12500,110000,0,45000,342
Noosh,55.6458154,37.6063758,ЮАО,,6000,,,12,2,37,,9100,87000,0,24000,192
Бакинский бульвар,55.6416706,37.5937757,ЮАО,,6000,,,12,0,26,,9100,87000,0,24000,192
Шоколадница,55.757364,37.6316441,ЦАО,,9000,,,18,43,415,,12500,110000,0,45000,342
Вкусно — и точка,55.7715816,37.6814166,ЦАО,,9500,,,19,50,136,,12500,110000,0,45000,342
Вкусно — и точка,55.6921836,37.5282825,ЮЗАО,,4500,,,9,24,57,,10500,98000,0,29000,165
New York Pizza,55.6920292,37.5279942,ЮЗАО,,4500,,,9,24,57,,10500,98000,0,29000,165
Вкусно — и точка,55.6904837,37.6015243,ЦАО,,9500,,,19,19,37,,12500,110000,0,45000,342
IL Патио,55.7573675,37.6584838,ЦАО,,4000,,,8,51,252,,12500,110000,0,45000,342
Крошка Картошка,55.7565416,37.6592025,ЦАО,,5000,,,10,52,245,,12500,110000,0,45000,342
Rostic's,55.758067,37.6589801,ЦАО,,4500,,,9,49,247,,12500,110000,0,45000,342
Fridays,55.7574938,37.6584594,ЦАО,,4000,,,8,50,252,,12500,110000,0,45000,342
Теремок,55.7572886,37.6586466,ЦАО,,4000,,,8,52,251,,12500,110000,0,45000,342
Кофе Хауз,55.7576428,37.6586654,ЦАО,,4000,,,8,49,251,,12500,110000,0,45000,342
IL Патио,55.710112,37.6235895,ЦАО,,6000,,,12,69,116,,12500,110000,0,45000,342
Дом оранжевой коровы,55.712109,37.6294432,ЦАО,,3500,,,7,2,118,,12500,110000,0,45000,342
Этаж,55.707908,37.6222354,ЦАО,,8500,,,17,52,121,,12500,110000,0,45000,342
Pizzamento,55.6729122,37.664561,ЦАО,,4500,,,9,6,49,,12500,110000,0,45000,342
Вкусно — и точка,55.7589521,37.6107581,ЦАО,,4000,,,8,46,460,,12500,110000,0,45000,342
Гудман,55.7304479,37.6342593,ЦАО,,4500,,,9,41,276,,12500,110000,0,45000,342
Шоколадница,55.7305169,37.6352842,ЦАО,,4500,,,9,46,276,,12500,110000,0,45000,342
Блюз,55.7235679,37.5678062,ЦАО,,3000,,,6,10,101,,12500,110000,0,45000,342
,55.6529343,37.6201603,ЦАО,,6500,,,13,17,45,,12500,110000,0,45000,342
,55.7288453,37.6224264,ЦАО,,7500,,,15,43,219,,12500,110000,0,45000,342
Тануки,55.734817,37.6279233,ЦАО,,4000,,,8,22,318,,12500,110000,0,45000,342
Колбасофф,55.7399858,37.6638747,ЦАО,,9000,,,18,30,207,,12500,110000,0,45000,342
Кафетериус,55.757282,37.5949512,ЦАО,,5000,,,10,22,336,,12500,110000,0,45000,342
Столовая сектора В,55.703215,37.530274,ЦАО,,4000,,,8,13,22,,12500,110000,0,45000,342
Столовая сектора Б,55.702652,37.531278,ЦАО,,5000,,,10,13,23,,12500,110000,0,45000,342
Теремок,55.7442858,37.5656531,ЦАО,,8500,,,17,76,134,,12500,110000,0,45000,342
El Idilio,55.7676363,37.5980868,ЦАО,,5500,,,11,43,365,,12500,110000,0,45000,342
Тянься Чуэнь,55.6861835,37.5441017,ЮЗАО,,8500,,,17,4,59,,10500,98000,0,29000,165
Восточная комната,55.7477921,37.5806167,ЦАО,,5500,,,11,37,205,,12500,110000,0,45000,342
Вкусно — и точка,55.6827619,37.5495146,ЮЗАО,,7000,,,14,21,52,,10500,98000,0,29000,165
Турандот,55.7630488,37.6042918,ЦАО,,6000,,,12,37,425,,12500,110000,0,45000,342
Пушкинъ,55.7634115,37.6046705,ЦАО,,6500,,,13,41,435,,12500,110000,0,45000,342
Шинок,55.754985,37.5603383,ЦАО,,6500,,,13,20,136,,12500,110000,0,45000,342
Папа Джонс,55.7212034,37.6235815,ЦАО,,7000,,,14,13,147,,12500,110000,0,45000,342
Сирена,55.7748487,37.6396962,ЦАО,,2500,,,5,6,219,,12500,110000,0,45000,342
Вкусно — и точка,55.6657667,37.6287322,ЦАО,,4500,,,9,8,18,,12500,110000,0,45000,342
Усадьба принца,55.6611168,37.6332233,ЦАО,,4000,,,8,0,16,,12500,110000,0,45000,342
ЛаBeerРинт,55.6582049,37.5682109,ЦАО,,6000,,,12,15,35,,12500,110000,0,45000,342
Колбасофф,55.6475661,37.6048627,ЮАО,,6000,,,12,2,43,,9100,87000,0,24000,192
Русское Подворье,55.6519072,37.6047157,ЦАО,,8000,,,16,3,45,,12500,110000,0,45000,342
Вкусно — и точка,55.6699276,37.5529454,ЦАО,,7000,,,14,21,59,,12500,110000,0,45000,342
Шоколадница,55.7351492,37.5178934,ЦАО,,6000,,,12,2,28,,12500,110000,0,45000,342
Пилзнер,55.7593349,37.6448731,ЦАО,,2500,,,5,54,404,,12500,110000,0,45000,342
Му-Му,55.7714124,37.6790174,ЦАО,,8500,,,17,57,139,,12500,110000,0,45000,342
Тануки,55.6481937,37.5720927,ЮАО,,4000,,,8,0,26,,9100,87000,0,24000,192
Кампус,55.7395493,37.5847845,ЦАО,,7500,,,15,17,157,,12500,110000,0,45000,342
Планета Суши,55.6713428,37.5538091,ЦАО,,7500,,,15,24,65,,12500,110000,0,45000,342
IL Патио,55.6714145,37.5537963,ЦАО,,7500,,,15,24,65,,12500,110000,0,45000,342
Шоколадница,55.7612185,37.5793193,ЦАО,,10500,,,21,26,182,,12500,110000,0,45000,342
Уют,55.7234875,37.655106,ЦАО,,5000,,,10,12,76,,12500,110000,0,45000,342
Кафе Халяль Пекарня,55.6453068,37.5299709,ЮЗАО,,5000,,,10,3,61,,10500,98000,0,29000,165
Rostic's,55.6921003,37.5281268,ЮЗАО,,4500,,,9,24,57,,10500,98000,0,29000,165
Loave,55.7415788,37.6283784,ЦАО,,5000,,,10,58,218,,12500,110000,0,45000,342
Вкусно — и точка,55.7576901,37.6342989,ЦАО,,7500,,,15,45,421,,12500,110000,0,45000,342
Па-паэлья,55.7621415,37.6350472,ЦАО,,1500,,,3,53,471,,12500,110000,0,45000,342
Чикко Клуб,55.6597125,37.5983513,ЦАО,,4500,,,9,1,29,,12500,110000,0,45000,342
Вкусно — и точка,55.7290986,37.6237445,ЦАО,,8000,,,16,49,225,,12500,110000,0,45000,342
Ткемали,55.7540938,37.6411609,ЦАО,,8000,,,16,42,287,,12500,110000,0,45000,342
Экспедиция,55.7517467,37.6417507,ЦАО,,7000,,,14,11,233,,12500,110000,0,45000,342
Корчма,55.7742263,37.6174874,ЦАО,,5500,,,11,22,252,,12500,110000,0,45000,342
Хинкальный дом Колхида,55.7632361,37.5867469,ЦАО,,4000,,,8,18,236,,12500,110000,0,45000,342
Штолле,55.767666,37.5926032,ЦАО,,4500,,,9,30,345,,12500,110000,0,45000,342
Шоколадница,55.7673084,37.5933715,ЦАО,,4000,,,8,28,361,,12500,110000,0,45000,342
Positano,55.770158,37.5984654,ЦАО,,7000,,,14,45,379,,12500,110000,0,45000,342
Айва,55.7629854,37.5880591,ЦАО,,3500,,,7,21,265,,12500,110000,0,45000,342
Клешни и хвосты,55.7703083,37.5988162,ЦАО,,7500,,,15,41,380,,12500,110000,0,45000,342
Даблби,55.7667104,37.6107617,ЦАО,,8000,,,16,55,448,,12500,110000,0,45000,342
Чемодан,55.7486687,37.5994629,ЦАО,,6000,,,12,12,269,,12500,110000,0,45000,342
Ла Маре,55.7678741,37.6139496,ЦАО,,6000,,,12,29,420,,12500,110000,0,45000,342
Палаццо Дукале,55.7585264,37.5983282,ЦАО,,6000,,,12,38,384,,12500,110000,0,45000,342
Жан-Жак,55.7552843,37.6006938,ЦАО,,6000,,,12,36,343,,12500,110000,0,45000,342
Венеция,55.7652183,37.6083324,ЦАО,,7500,,,15,61,458,,12500,110000,0,45000,342
Русский паб,55.7590954,37.6004288,ЦАО,,5500,,,11,41,429,,12500,110000,0,45000,342
Домжур,55.7540486,37.6014528,ЦАО,,6000,,,12,37,300,,12500,110000,0,45000,342
Saviv,55.7681694,37.6139141,ЦАО,,6000,,,12,24,406,,12500,110000,0,45000,342
Padron,55.7672164,37.6084775,ЦАО,,7000,,,14,53,451,,12500,110000,0,45000,342
Babacha,55.7716573,37.6379158,ЦАО,,5500,,,11,14,259,,12500,110000,0,45000,342
Yoko,55.7433214,37.6044129,ЦАО,,6500,,,13,14,163,,12500,110000,0,45000,342
Теремок,55.7449919,37.6006171,ЦАО,,8500,,,17,20,225,,12500,110000,0,45000,342
Алтаргана,55.7673462,37.6522939,ЦАО,,6500,,,13,9,271,,12500,110000,0,45000,342
БирШтрассе,55.6406605,37.6031014,ЮАО,,8500,,,17,8,24,,9100,87000,0,24000,192
,55.7416266,37.6287239,ЦАО,,5000,,,10,60,215,,12500,110000,0,45000,342
,55.6777353,37.6588261,ЦАО,,5000,,,10,4,49,,12500,110000,0,45000,342
Чебуречная № 1,55.6775693,37.66028,ЦАО,,5500,,,11,11,52,,12500,110000,0,45000,342
Столовая Б «Профессура»,55.7026885,37.5306528,ЦАО,,4500,,,9,14,23,,12500,110000,0,45000,342
Столовая В «Профессура»,55.702891,37.530289,ЦАО,,4500,,,9,13,22,,12500,110000,0,45000,342
,55.702286,37.531996,ЦАО,,5000,,,10,13,30,,12500,110000,0,45000,342
Факультет,55.703591,37.529905,ЦАО,,4500,,,9,12,21,,12500,110000,0,45000,342
GlowSubs,55.6935908,37.5341159,ЮЗАО,,5500,,,11,21,70,,10500,98000,0,29000,165
Шоколадница,55.6932599,37.5336446,ЮЗАО,,7000,,,14,21,66,,10500,98000,0,29000,165
Вкусно — и точка,55.727632,37.5803116,ЦАО,,3000,,,6,32,126,,12500,110000,0,45000,342
Романофф,55.7221456,37.6515947,ЦАО,,4500,,,9,17,80,,12500,110000,0,45000,342
,55.7110211,37.6306352,ЦАО,,1500,,,3,1,130,,12500,110000,0,45000,342
Шоколадница,55.7409522,37.6276453,ЦАО,,4500,,,9,56,222,,12500,110000,0,45000,342
Кура,55.6382359,37.6688379,ЮАО,,4500,,,9,1,14,,9100,87000,0,24000,192
Il Borgo,55.6812983,37.5489268,ЮЗАО,,7500,,,15,6,53,,10500,98000,0,29000,165
Мцхета,55.655016,37.5835282,ЦАО,,4500,,,9,3,33,,12500,110000,0,45000,342
Надин,55.7589836,37.6173425,ЦАО,,4500,,,9,51,428,,12500,110000,0,45000,342
Вкусно — и точка,55.7474016,37.5843473,ЦАО,,4000,,,8,53,196,,12500,110000,0,45000,342
Шоколадница,55.7409749,37.5360004,ЦАО,,3500,,,7,14,167,,12500,110000,0,45000,342
Verdi,55.7644803,37.6717407,ЦАО,,7000,,,14,1,154,,12500,110000,0,45000,342
Гурман,55.7420779,37.5588186,ЦАО,,1500,,,3,8,119,,12500,110000,0,45000,342
Такэ,55.6883768,37.5732294,ЦАО,,8000,,,16,17,57,,12500,110000,0,45000,342
Лига пап,55.7653264,37.6309256,ЦАО,,2500,,,5,33,462,,12500,110000,0,45000,342
Паста и Баста,55.7662068,37.6320303,ЦАО,,2500,,,5,35,438,,12500,110000,0,45000,342
Кулинарная лавка братьев Караваевых,55.7658952,37.6322394,ЦАО,,2500,,,5,36,450,,12500,110000,0,45000,342
Кулинарная лавка братьев Караваевых,55.7591694,37.6453003,ЦАО,,2500,,,5,52,400,,12500,110000,0,45000,342
Кулинарная лавка братьев Караваевых,55.7626987,37.5892139,ЦАО,,3500,,,7,21,273,,12500,110000,0,45000,342
Floo,55.7687885,37.5893563,ЦАО,,7000,,,14,20,339,,12500,110000,0,45000,342
Андиамо,55.6869871,37.5355596,ЮЗАО,,4500,,,9,0,89,,10500,98000,0,29000,165
Корчма,55.6625281,37.5551503,ЦАО,,2500,,,5,5,51,,12500,110000,0,45000,342
Архитектор,55.7699843,37.5937454,ЦАО,,5500,,,11,43,361,,12500,110000,0,45000,342
Сытый лось,55.6657973,37.6511706,ЦАО,,8000,,,16,1,9,,12500,110000,0,45000,342
Булка,55.7737934,37.5860675,ЦАО,,10000,,,20,57,341,,12500,110000,0,45000,342
Теремок,55.7575201,37.6345789,ЦАО,,7500,,,15,47,421,,12500,110000,0,45000,342
Траттория Semplice,55.7639264,37.646019,ЦАО,,2500,,,5,12,356,,12500,110000,0,45000,342
Столовая №8,55.6998559,37.5406453,ЮЗАО,,6000,,,12,0,46,,10500,98000,0,29000,165
Фрателлидзе,55.7425995,37.5495308,ЦАО,,2500,,,5,4,108,,12500,110000,0,45000,342
Суши Wok,55.6537748,37.6156965,ЦАО,,9000,,,18,3,50,,12500,110000,0,45000,342
Фестивальное,55.7544221,37.6228179,ЦАО,,1500,,,3,24,369,,12500,110000,0,45000,342
Столовая №57,55.7542097,37.6233607,ЦАО,,1500,,,3,19,362,,12500,110000,0,45000,342
Му-Му,55.7409433,37.6277777,ЦАО,,4500,,,9,55,222,,12500,110000,0,45000,342
Tehnikum,55.76079,37.6148405,ЦАО,,5500,,,11,62,458,,12500,110000,0,45000,342
Вкусно — и точка,55.7653489,37.6384549,ЦАО,,2000,,,4,29,399,,12500,110000,0,45000,342
Багеттерия,55.7091356,37.6219655,ЦАО,,7000,,,14,56,125,,12500,110000,0,45000,342
Вкусно — и точка,55.7093458,37.6223326,ЦАО,,6500,,,13,56,124,,12500,110000,0,45000,342
Поль Бейкери,55.7093969,37.6223362,ЦАО,,6500,,,13,61,123,,12500,110000,0,45000,342
Шоколадница,55.7079507,37.6222314,ЦАО,,8500,,,17,52,121,,12500,110000,0,45000,342
Lux cafe,55.7080597,37.6218884,ЦАО,,9000,,,18,53,123,,12500,110000,0,45000,342
Баскин Роббинс,55.7091282,37.6223071,ЦАО,,7000,,,14,55,125,,12500,110000,0,45000,342
Крошка Картошка,55.7092661,37.6223256,ЦАО,,7000,,,14,55,124,,12500,110000,0,45000,342
кремлевский экспресс,55.7093922,37.6220148,ЦАО,,6500,,,13,63,123,,12500,110000,0,45000,342
УДОНъяСАН,55.7093406,37.6220093,ЦАО,,6500,,,13,60,124,,12500,110000,0,45000,342
Кофетун,55.707847,37.6222844,ЦАО,,7500,,,15,51,121,,12500,110000,0,45000,342
Техас Чикен,55.7092401,37.6219747,ЦАО,,6500,,,13,56,124,,12500,110000,0,45000,342
Ташир Пицца,55.7094982,37.6220254,ЦАО,,6500,,,13,70,123,,12500,110000,0,45000,342
Теремок,55.7091875,37.6219701,ЦАО,,6500,,,13,56,124,,12500,110000,0,45000,342
Кебаб Тун,55.7094503,37.6220185,ЦАО,,6500,,,13,67,123,,12500,110000,0,45000,342
Шарм,55.7079682,37.6219598,ЦАО,,8500,,,17,53,120,,12500,110000,0,45000,342
Этаж,55.7080597,37.6223109,ЦАО,,9000,,,18,53,123,,12500,110000,0,45000,342
Венский Штрудель,55.7091655,37.6223129,ЦАО,,7000,,,14,55,125,,12500,110000,0,45000,342
Сбарро,55.7092926,37.6219805,ЦАО,,6500,,,13,56,124,,12500,110000,0,45000,342
Кофе Хауз,55.709483,37.6223537,ЦАО,,6500,,,13,67,123,,12500,110000,0,45000,342
Сушитун,55.7078489,37.6222176,ЦАО,,7500,,,15,51,121,,12500,110000,0,45000,342
Шейх Палас,55.7386974,37.5462158,ЦАО,,0,,,0,7,48,,12500,110000,0,45000,342
Пивбар 6/9,55.7611536,37.6240418,ЦАО,,6500,,,13,79,474,,12500,110000,0,45000,342
IL Патио,55.770209,37.5961583,ЦАО,,6000,,,12,44,385,,12500,110000,0,45000,342
Шале,55.6754826,37.6106196,ЦАО,,3000,,,6,7,24,,12500,110000,0,45000,342
Rostic's,55.6837988,37.6216136,ЦАО,,4500,,,9,11,33,,12500,110000,0,45000,342
Джем,55.7579947,37.6763636,ЦАО,,2000,,,4,9,79,,12500,110000,0,45000,342
French Kiss,55.735131,37.61281,ЦАО,,5000,,,10,9,193,,12500,110000,0,45000,342
A'petit,55.7738478,37.5990744,ЦАО,,7500,,,15,24,438,,12500,110000,0,45000,342
Буржуй,55.7748626,37.6718904,ЦАО,,7000,,,14,35,198,,12500,110000,0,45000,342
"Ave, pasta!",55.7594197,37.6088804,ЦАО,,4000,,,8,30,467,,12500,110000,0,45000,342
Кофемания,55.7565428,37.6049272,ЦАО,,4500,,,9,37,351,,12500,110000,0,45000,342
Якитория,55.7718109,37.592511,ЦАО,,5500,,,11,32,427,,12500,110000,0,45000,342
ВьетКафе,55.7572486,37.6081032,ЦАО,,3500,,,7,38,388,,12500,110000,0,45000,342
Вареничная №1,55.7598931,37.6136876,ЦАО,,5000,,,10,59,461,,12500,110000,0,45000,342
Боэми,55.7564703,37.5701285,ЦАО,,4500,,,9,11,158,,12500,110000,0,45000,342
Rostic's,55.6486394,37.6564224,ЮАО,,4500,,,9,2,33,,9100,87000,0,24000,192
,55.7397492,37.6567534,ЦАО,,15000,,,30,53,203,,12500,110000,0,45000,342
Столовая,55.7376047,37.6602132,ЦАО,,10500,,,21,21,195,,12500,110000,0,45000,342
Surf Coffee,55.7246075,37.5624248,ЦАО,,6000,,,12,21,74,,12500,110000,0,45000,342
Шоколадница,55.7305611,37.6116567,ЦАО,,7000,,,14,22,186,,12500,110000,0,45000,342
Metekhi,55.7727126,37.6498119,ЦАО,,8500,,,17,27,199,,12500,110000,0,45000,342
Subway,55.7739479,37.6502347,ЦАО,,7500,,,15,19,191,,12500,110000,0,45000,342
Кофе Хауз,55.6536211,37.6206341,ЦАО,,7000,,,14,16,44,,12500,110000,0,45000,342
Шоколадница,55.6539117,37.620604,ЦАО,,7500,,,15,16,44,,12500,110000,0,45000,342
Суши Тун,55.6536163,37.6205755,ЦАО,,7000,,,14,16,44,,12500,110000,0,45000,342
Крошка Картошка,55.6538449,37.6205741,ЦАО,,7500,,,15,16,44,,12500,110000,0,45000,342
Восточный базар,55.653728,37.6206553,ЦАО,,7000,,,14,16,44,,12500,110000,0,45000,342
Ёлки-Палки,55.6538528,37.6206907,ЦАО,,6500,,,13,16,44,,12500,110000,0,45000,342
Сбарро,55.6536925,37.6205751,ЦАО,,7000,,,14,16,44,,12500,110000,0,45000,342
Егерь,55.7091026,37.6584407,ЦАО,,6500,,,13,33,75,,12500,110000,0,45000,342
Марков двор,55.7089691,37.655433,ЦАО,,6000,,,12,39,77,,12500,110000,0,45000,342
Венахи,55.70866,37.6553916,ЦАО,,6000,,,12,40,79,,12500,110000,0,45000,342
Папа Джонс,55.6382959,37.6668185,ЮАО,,5000,,,10,1,15,,9100,87000,0,24000,192
Сунжа,55.7389838,37.6281094,ЦАО,,5000,,,10,48,255,,12500,110000,0,45000,342
Subway,55.6853929,37.5792096,ЦАО,,6500,,,13,7,66,,12500,110000,0,45000,342
Argomento,55.7382457,37.5319744,ЦАО,,4500,,,9,8,69,,12500,110000,0,45000,342
Якитория,55.6419463,37.606826,ЮАО,,9500,,,19,12,28,,9100,87000,0,24000,192
Вкусно — и точка,55.6878862,37.6045516,ЦАО,,6000,,,12,9,44,,12500,110000,0,45000,342
Цурцум,55.7557397,37.6647312,ЦАО,,3500,,,7,19,170,,12500,110000,0,45000,342
Шикари,55.6889742,37.5446671,ЮЗАО,,5500,,,11,9,71,,10500,98000,0,29000,165
Шоколадница,55.77306,37.6786196,ЦАО,,7000,,,14,51,145,,12500,110000,0,45000,342
Теплица,55.7703645,37.6466894,ЦАО,,5500,,,11,40,268,,12500,110000,0,45000,342
Бургер Кинг,55.748888,37.5395108,ЦАО,,6000,,,12,83,150,,12500,110000,0,45000,342
Свой Круг,55.7260802,37.6470552,ЦАО,,4500,,,9,18,166,,12500,110000,0,45000,342
Бистро столовая №1,55.7395304,37.6648093,ЦАО,,7000,,,14,28,197,,12500,110000,0,45000,342
Ханой Фуд,55.738663,37.6609498,ЦАО,,12000,,,24,30,203,,12500,110000,0,45000,342
Чебуречная,55.7743568,37.5844455,ЦАО,,10500,,,21,70,328,,12500,110000,0,45000,342
Nene,55.7734606,37.586626,ЦАО,,9500,,,19,51,349,,12500,110000,0,45000,342
Боцман,55.704798,37.6672361,ЦАО,,7500,,,15,1,83,,12500,110000,0,45000,342
Шоколадница,55.6922365,37.5275538,ЮЗАО,,5000,,,10,24,57,,10500,98000,0,29000,165
Хинкальная 53,55.7358898,37.5952501,ЦАО,,5500,,,11,19,158,,12500,110000,0,45000,342
Старт,55.7218771,37.5426065,ЦАО,,0,,,0,0,16,,12500,110000,0,45000,342
Сенполия,55.7302661,37.6185049,ЦАО,,9000,,,18,15,193,,12500,110000,0,45000,342
Старая Башня,55.756857,37.6205031,ЦАО,,4500,,,9,42,377,,12500,110000,0,45000,342
Му-Му,55.7520464,37.5988331,ЦАО,,4500,,,9,42,286,,12500,110000,0,45000,342
Шоколадница,55.6439048,37.5265314,ЮЗАО,,6500,,,13,12,62,,10500,98000,0,29000,165
Васильки,55.6456146,37.5181122,ЮЗАО,,5500,,,11,12,41,,10500,98000,0,29000,165
Мариус,55.6447815,37.5199719,ЮЗАО,,5500,,,11,13,60,,10500,98000,0,29000,165
Лаферм,55.7395497,37.63042,ЦАО,,5000,,,10,50,244,,12500,110000,0,45000,342
Georgiano,55.7071385,37.5727401,ЦАО,,5500,,,11,4,41,,12500,110000,0,45000,342
Пилзнер,55.733492,37.64114,ЦАО,,5500,,,11,33,220,,12500,110000,0,45000,342
IL Патио,55.7416742,37.6558648,ЦАО,,11500,,,23,62,189,,12500,110000,0,45000,342
Кахури,55.6425589,37.5202952,ЮЗАО,,5500,,,11,13,57,,10500,98000,0,29000,165
Алоха,55.7430993,37.6300845,ЦАО,,7000,,,14,57,187,,12500,110000,0,45000,342
Вкусно — и точка,55.7721265,37.6316271,ЦАО,,5500,,,11,35,277,,12500,110000,0,45000,342
Чайковский,55.7691444,37.5962435,ЦАО,,6000,,,12,43,374,,12500,110000,0,45000,342
Суп-кафе,55.7751123,37.5854938,ЦАО,,8500,,,17,73,332,,12500,110000,0,45000,342
Волконский,55.7657175,37.5911035,ЦАО,,3000,,,6,26,334,,12500,110000,0,45000,342
Dodgy,55.771171,37.6370068,ЦАО,,5000,,,10,24,264,,12500,110000,0,45000,342
Шоколадница,55.7517713,37.5988304,ЦАО,,5000,,,10,41,291,,12500,110000,0,45000,342
Генацвале,55.7517973,37.5968266,ЦАО,,5000,,,10,55,309,,12500,110000,0,45000,342
Шоколадница,55.7499909,37.5936839,ЦАО,,3500,,,7,45,293,,12500,110000,0,45000,342
Теремок,55.7489895,37.5894351,ЦАО,,3000,,,6,32,245,,12500,110000,0,45000,342
,55.683789,37.6241951,ЦАО,,6500,,,13,14,36,,12500,110000,0,45000,342
Якитория,55.6843506,37.6221411,ЦАО,,4500,,,9,12,33,,12500,110000,0,45000,342
Якитория,55.7732491,37.6782588,ЦАО,,7000,,,14,42,147,,12500,110000,0,45000,342
Ян Примус,55.7731682,37.6779798,ЦАО,,7000,,,14,42,150,,12500,110000,0,45000,342
Graff Lounge,55.7725214,37.637681,ЦАО,,5000,,,10,14,240,,12500,110000,0,45000,342
Хинкальная на Спасской,55.773774,37.6395434,ЦАО,,4000,,,8,9,230,,12500,110000,0,45000,342
Капри,55.7693717,37.6415642,ЦАО,,3500,,,7,17,266,,12500,110000,0,45000,342
F1,55.6458704,37.560827,ЮАО,,4000,,,8,1,9,,9100,87000,0,24000,192
Coffee Bean,55.7452044,37.6272489,ЦАО,,8000,,,16,42,170,,12500,110000,0,45000,342
Сушисет,55.6791751,37.5756805,ЦАО,,4000,,,8,13,65,,12500,110000,0,45000,342
Малиновка,55.7267261,37.5958305,ЦАО,,2000,,,4,20,115,,12500,110000,0,45000,342
Бутчер,55.6667736,37.5517143,ЦАО,,6000,,,12,4,60,,12500,110000,0,45000,342
Эль Гаучо,55.7327688,37.6393263,ЦАО,,4500,,,9,42,236,,12500,110000,0,45000,342
Торро Гриль,55.728652,37.6447741,ЦАО,,3000,,,6,37,191,,12500,110000,0,45000,342
Fruit Bar,55.7096038,37.5639715,ЦАО,,2000,,,4,3,33,,12500,110000,0,45000,342
,55.7114625,37.5721308,ЦАО,,4500,,,9,1,32,,12500,110000,0,45000,342
Pro.Хинкали,55.7711475,37.679335,ЦАО,,8500,,,17,58,140,,12500,110000,0,45000,342
Разгуляй,55.7722564,37.6730744,ЦАО,,9000,,,18,19,182,,12500,110000,0,45000,342
Тапчан,55.7461948,37.6706211,ЦАО,,7000,,,14,9,137,,12500,110000,0,45000,342
Киноплов,55.7707278,37.6470917,ЦАО,,5500,,,11,36,261,,12500,110000,0,45000,342
Moments,55.7334719,37.6388931,ЦАО,,5500,,,11,31,228,,12500,110000,0,45000,342
Дружба,55.7717332,37.6334682,ЦАО,,6000,,,12,40,296,,12500,110000,0,45000,342
Correa's,55.7355599,37.6424276,ЦАО,,4000,,,8,26,242,,12500,110000,0,45000,342
Мтеби,55.770975,37.6519951,ЦАО,,8000,,,16,25,229,,12500,110000,0,45000,342
Balabowl,55.7009182,37.6218261,ЦАО,,5500,,,11,13,104,,12500,110000,0,45000,342
,55.7446648,37.6109085,ЦАО,,7500,,,15,12,164,,12500,110000,0,45000,342
Галилея,55.7451395,37.6115408,ЦАО,,7000,,,14,7,174,,12500,110000,0,45000,342
ВьетКафе,55.6626464,37.5545137,ЦАО,,3500,,,7,5,57,,12500,110000,0,45000,342
Алло! Пицца,55.6664546,37.5435561,ЮЗАО,,5000,,,10,5,70,,10500,98000,0,29000,165
Chokolat,55.6668776,37.5518362,ЦАО,,6000,,,12,5,60,,12500,110000,0,45000,342
,55.6995448,37.5327223,ЮЗАО,,4500,,,9,2,69,,10500,98000,0,29000,165
Бабель,55.7486895,37.5802949,ЦАО,,7000,,,14,39,200,,12500,110000,0,45000,342
Prime,55.6970753,37.6256623,ЦАО,,5000,,,10,7,58,,12500,110000,0,45000,342
Subway,55.7393026,37.5475459,ЦАО,,0,,,0,6,38,,12500,110000,0,45000,342
Якитория,55.7294046,37.6770884,ЦАО,,5500,,,11,7,56,,12500,110000,0,45000,342
Ив. Дурдинъ,55.7310928,37.6709447,ЦАО,,7000,,,14,7,91,,12500,110000,0,45000,342
Мтабари,55.7695567,37.5850202,ЦАО,,4500,,,9,21,296,,12500,110000,0,45000,342
Кедр,55.6800509,37.6406928,ЦАО,,2000,,,4,3,11,,12500,110000,0,45000,342
Бургер Кинг,55.7099851,37.6571327,ЦАО,,5500,,,11,40,78,,12500,110000,0,45000,342
Корчма,55.7411804,37.5854454,ЦАО,,6500,,,13,6,173,,12500,110000,0,45000,342
Prime,55.7718112,37.6489648,ЦАО,,7500,,,15,34,229,,12500,110000,0,45000,342
Венская кофейня,55.7717541,37.6488127,ЦАО,,7000,,,14,34,231,,12500,110000,0,45000,342
Спектр,55.7226569,37.5618782,ЦАО,,5500,,,11,18,66,,12500,110000,0,45000,342
Столовая,55.7633693,37.6224411,ЦАО,,5500,,,11,55,527,,12500,110000,0,45000,342
А. Ф. Кони,55.7697611,37.6553654,ЦАО,,8000,,,16,13,234,,12500,110000,0,45000,342
Кофемания,55.7592091,37.6461342,ЦАО,,3000,,,6,52,407,,12500,110000,0,45000,342
Арго VIP,55.743683,37.577748,ЦАО,,6000,,,12,5,202,,12500,110000,0,45000,342
Столовая НИУ ВШЭ,55.754448,37.6491021,ЦАО,,500,,,1,21,310,,12500,110000,0,45000,342
Грабли,55.7663808,37.6036411,ЦАО,,6000,,,12,56,413,,12500,110000,0,45000,342
Фаворит,55.772544,37.6278224,ЦАО,,6500,,,13,15,272,,12500,110000,0,45000,342
Forbest,55.7530071,37.6451867,ЦАО,,3500,,,7,26,274,,12500,110000,0,45000,342
Rostic's,55.7418022,37.6556865,ЦАО,,11500,,,23,62,190,,12500,110000,0,45000,342
Гусятникоff,55.7419942,37.6565244,ЦАО,,10500,,,21,59,190,,12500,110000,0,45000,342
Планета,55.7416265,37.6560953,ЦАО,,11500,,,23,61,186,,12500,110000,0,45000,342
Аруба,55.7396123,37.6518741,ЦАО,,13000,,,26,33,209,,12500,110000,0,45000,342
Му-Му,55.7411915,37.6586706,ЦАО,,13000,,,26,38,203,,12500,110000,0,45000,342
Пронто,55.7412367,37.6584348,ЦАО,,13000,,,26,37,198,,12500,110000,0,45000,342
Китайское барбекю 1314,55.7120797,37.6261392,ЦАО,,6500,,,13,11,117,,12500,110000,0,45000,342
Тануки,55.7225943,37.6109122,ЦАО,,2500,,,5,22,128,,12500,110000,0,45000,342
Мали-Београд,55.771196,37.6026988,ЦАО,,10000,,,20,35,343,,12500,110000,0,45000,342
Бургер Кинг,55.7448724,37.5652192,ЦАО,,8500,,,17,76,131,,12500,110000,0,45000,342
Улей,55.7061596,37.5214575,ЦАО,,7000,,,14,1,20,,12500,110000,0,45000,342
Му-Му,55.7293121,37.6226498,ЦАО,,7000,,,14,43,224,,12500,110000,0,45000,342
Золберг,55.7276486,37.6215513,ЦАО,,7500,,,15,39,198,,12500,110000,0,45000,342
Бочка,55.7548591,37.5604535,ЦАО,,6500,,,13,19,134,,12500,110000,0,45000,342
Subway,55.6815025,37.6248773,ЦАО,,6500,,,13,5,33,,12500,110000,0,45000,342
Андерсон,55.7615609,37.6831611,ЦАО,,7500,,,15,8,33,,12500,110000,0,45000,342
Kalabasa,55.7625311,37.6797727,ЦАО,,8500,,,17,8,57,,12500,110000,0,45000,342
Папа Джонс,55.6762018,37.5195059,ЮЗАО,,6000,,,12,1,20,,10500,98000,0,29000,165
Сейджи,55.731888,37.5930897,ЦАО,,6000,,,12,9,161,,12500,110000,0,45000,342
Sanctuary,55.7295644,37.660591,ЦАО,,7000,,,14,6,108,,12500,110000,0,45000,342
Пражка,55.7340213,37.6630425,ЦАО,,11000,,,22,25,157,,12500,110000,0,45000,342
Украина,55.751582,37.5660603,ЦАО,,4000,,,8,13,154,,12500,110000,0,45000,342
Лето,55.744112,37.5616329,ЦАО,,9000,,,18,57,123,,12500,110000,0,45000,342
Волконский,55.771521,37.6322476,ЦАО,,6000,,,12,38,289,,12500,110000,0,45000,342
ПивТрест,55.768219,37.6444901,ЦАО,,4500,,,9,27,309,,12500,110000,0,45000,342
Шоколадница,55.7634787,37.6359136,ЦАО,,2000,,,4,57,461,,12500,110000,0,45000,342
Вкусно — и точка,55.7579448,37.6239958,ЦАО,,5000,,,10,66,451,,12500,110000,0,45000,342
Chang,55.7620473,37.6352221,ЦАО,,1500,,,3,53,468,,12500,110000,0,45000,342
Погребок,55.7617805,37.6341871,ЦАО,,3000,,,6,56,480,,12500,110000,0,45000,342
,55.6825001,37.6605306,ЦАО,,5000,,,10,10,43,,12500,110000,0,45000,342
Кафе на Басманной,55.7689427,37.6687105,ЦАО,,8000,,,16,10,225,,12500,110000,0,45000,342
Пицца Соле Мио,55.7569112,37.6590315,ЦАО,,4500,,,9,54,247,,12500,110000,0,45000,342
Этаж Прojект,55.7568653,37.6595705,ЦАО,,4500,,,9,53,248,,12500,110000,0,45000,342
БлинБери,55.7647342,37.6396849,ЦАО,,1000,,,2,28,373,,12500,110000,0,45000,342
Stars Coffee,55.773752,37.6037014,ЦАО,,10500,,,21,25,367,,12500,110000,0,45000,342
Тбилисо,55.7682737,37.6793515,ЦАО,,7000,,,14,15,134,,12500,110000,0,45000,342
Визирь Махалля & Граф Орлов,55.7095639,37.6052247,ЦАО,,1000,,,2,8,98,,12500,110000,0,45000,342
Essenza by Mauro Panebianco,55.7600048,37.6044426,ЦАО,,5500,,,11,14,421,,12500,110000,0,45000,342
Шоколадница,55.7525371,37.6035518,ЦАО,,6000,,,12,29,286,,12500,110000,0,45000,342
Prime,55.7286119,37.6450227,ЦАО,,3000,,,6,36,189,,12500,110000,0,45000,342
,55.7000972,37.5184779,ЦАО,,4000,,,8,0,21,,12500,110000,0,45000,342
,55.6983893,37.5236666,ЮЗАО,,5000,,,10,0,60,,10500,98000,0,29000,165
Крошка Картошка,55.7730049,37.6331221,ЦАО,,6500,,,13,32,277,,12500,110000,0,45000,342
Му-Му,55.7482253,37.5838337,ЦАО,,5000,,,10,48,192,,12500,110000,0,45000,342
Пицца Аморэ,55.70512,37.5766451,ЦАО,,7000,,,14,4,49,,12500,110000,0,45000,342
Шоколадница,55.6939855,37.533403,ЮЗАО,,5500,,,11,20,76,,10500,98000,0,29000,165
Суши Wok,55.7392525,37.5475999,ЦАО,,0,,,0,6,37,,12500,110000,0,45000,342
Вкусно — и точка,55.7187349,37.6765856,ЦАО,,8500,,,17,6,45,,12500,110000,0,45000,342
Южный дворик,55.7113579,37.6810487,ЦАО,,7000,,,14,1,42,,12500,110000,0,45000,342
Елисей-1,55.715402,37.6327473,ЦАО,,500,,,1,0,112,,12500,110000,0,45000,342
Probka,55.7688739,37.622855,ЦАО,,4000,,,8,52,386,,12500,110000,0,45000,342
Кулинарная лавка братьев Караваевых,55.7356765,37.5870084,ЦАО,,7500,,,15,43,142,,12500,110000,0,45000,342
Сандал,55.7668802,37.632799,ЦАО,,2500,,,5,34,393,,12500,110000,0,45000,342
Ёрш,55.6502783,37.6189512,ЦАО,,8000,,,16,1,42,,12500,110000,0,45000,342
Офис-клуб,55.6531052,37.5535173,ЦАО,,4500,,,9,4,34,,12500,110000,0,45000,342
Столовая,55.6576503,37.5443539,ЮЗАО,,6500,,,13,13,54,,10500,98000,0,29000,165
Калужский,55.6563904,37.5542324,ЦАО,,2500,,,5,6,56,,12500,110000,0,45000,342
Столовая,55.6573021,37.5523749,ЦАО,,2000,,,4,4,45,,12500,110000,0,45000,342
Tempo Pizza,55.6401386,37.6212215,ЮАО,,4500,,,9,3,15,,9100,87000,0,24000,192
Теремок,55.7716232,37.6495463,ЦАО,,7500,,,15,34,224,,12500,110000,0,45000,342
Шоколадница,55.7708113,37.6206762,ЦАО,,6000,,,12,58,325,,12500,110000,0,45000,342
Бургер Кинг,55.770379,37.6206946,ЦАО,,5500,,,11,55,339,,12500,110000,0,45000,342
Lavash,55.7693126,37.6206491,ЦАО,,5500,,,11,53,378,,12500,110000,0,45000,342
Пипл & паста,55.7729906,37.6207757,ЦАО,,6000,,,12,44,267,,12500,110000,0,45000,342
Счастье,55.767418,37.6074573,ЦАО,,8000,,,16,55,442,,12500,110000,0,45000,342
Якитория,55.7599185,37.6116817,ЦАО,,3500,,,7,57,484,,12500,110000,0,45000,342
Хачапури,55.7631772,37.6070846,ЦАО,,6500,,,13,36,453,,12500,110000,0,45000,342
Чайная высота,55.7603649,37.6112873,ЦАО,,3000,,,6,56,484,,12500,110000,0,45000,342
Rostic's,55.6406197,37.5317357,ЮЗАО,,6000,,,12,18,51,,10500,98000,0,29000,165
Крошка Картошка,55.6407906,37.5316879,ЮЗАО,,5500,,,11,18,52,,10500,98000,0,29000,165
CVC,55.6408176,37.5315859,ЮЗАО,,5500,,,11,18,53,,10500,98000,0,29000,165
Теремок,55.6407115,37.5318218,ЮЗАО,,6000,,,12,18,52,,10500,98000,0,29000,165
Schwarz Kaiser,55.6456044,37.6599065,ЮАО,,7000,,,14,0,18,,9100,87000,0,24000,192
Иль Массимо,55.7101338,37.6630722,ЦАО,,9500,,,19,5,99,,12500,110000,0,45000,342
True Cost,55.7531764,37.6349181,ЦАО,,7500,,,15,42,304,,12500,110000,0,45000,342
Экспромт,55.7539234,37.6375623,ЦАО,,6500,,,13,46,302,,12500,110000,0,45000,342
Диетическая столовая,55.702427,37.5316759,ЦАО,,5500,,,11,13,28,,12500,110000,0,45000,342
Чайная высота,55.7599555,37.6479801,ЦАО,,2000,,,4,53,409,,12500,110000,0,45000,342
Сибирячка и Снегирь,55.7547361,37.6364208,ЦАО,,7000,,,14,46,350,,12500,110000,0,45000,342
Кубдари,55.7545934,37.6366081,ЦАО,,7000,,,14,47,341,,12500,110000,0,45000,342
Кулинарная лавка братьев Караваевых,55.7536975,37.6373394,ЦАО,,7000,,,14,44,301,,12500,110000,0,45000,342
Белорусская хата,55.75912,37.6430129,ЦАО,,2000,,,4,57,373,,12500,110000,0,45000,342
Корё,55.709027,37.5929282,ЦАО,,1000,,,2,25,77,,12500,110000,0,45000,342
Black Milk,55.7621117,37.642506,ЦАО,,2500,,,5,16,390,,12500,110000,0,45000,342
Andy's Friends,55.7636028,37.6424211,ЦАО,,500,,,1,23,371,,12500,110000,0,45000,342
Советские времена,55.7635704,37.6553415,ЦАО,,7000,,,14,30,285,,12500,110000,0,45000,342
Ю-Мэ,55.7616514,37.6516859,ЦАО,,5500,,,11,28,327,,12500,110000,0,45000,342
Offer,55.769613,37.6448871,ЦАО,,5000,,,10,34,271,,12500,110000,0,45000,342
Кулинариум,55.7081479,37.6553057,ЦАО,,6000,,,12,46,81,,12500,110000,0,45000,342
Casa Agave,55.7560747,37.6275041,ЦАО,,8000,,,16,20,407,,12500,110000,0,45000,342
Lucky,55.7572956,37.5995714,ЦАО,,5000,,,10,43,384,,12500,110000,0,45000,342
Сандуны,55.7642313,37.6210871,ЦАО,,4500,,,9,40,516,,12500,110000,0,45000,342
Тифлисский дворик,55.7397775,37.5956285,ЦАО,,6500,,,13,16,178,,12500,110000,0,45000,342
Крошка-картошка,55.6401356,37.6210459,ЮАО,,4500,,,9,3,15,,9100,87000,0,24000,192
Ам Бургер,55.6401173,37.6209572,ЮАО,,4500,,,9,3,15,,9100,87000,0,24000,192
Джаганнат,55.7621623,37.6226103,ЦАО,,5000,,,10,76,501,,12500,110000,0,45000,342
Udon,55.7408599,37.6293568,ЦАО,,4000,,,8,61,218,,12500,110000,0,45000,342
Баловень,55.7302962,37.6325579,ЦАО,,4500,,,9,26,280,,12500,110000,0,45000,342
Бургер Кинг,55.7599927,37.5846467,ЦАО,,11500,,,23,27,234,,12500,110000,0,45000,342
Шоколадница,55.7363186,37.5907705,ЦАО,,10000,,,20,35,141,,12500,110000,0,45000,342
Шоколадница,55.7600899,37.5847296,ЦАО,,11500,,,23,26,234,,12500,110000,0,45000,342
,55.7243088,37.6369747,ЦАО,,0,,,0,12,223,,12500,110000,0,45000,342
IL Патио,55.729745,37.6374519,ЦАО,,5000,,,10,53,267,,12500,110000,0,45000,342
Stars Coffee,55.7301244,37.6361691,ЦАО,,4500,,,9,53,272,,12500,110000,0,45000,342
Бакинский бульвар,55.6657653,37.546089,ЮЗАО,,4500,,,9,7,69,,10500,98000,0,29000,165
Florentini,55.7648323,37.6577608,ЦАО,,7500,,,15,28,284,,12500,110000,0,45000,342
Тануки,55.7211755,37.5248499,ЦАО,,3000,,,6,1,11,,12500,110000,0,45000,342
Бутчер,55.7716232,37.6050362,ЦАО,,9500,,,19,30,369,,12500,110000,0,45000,342
Extra Virgin,55.7677529,37.6052613,ЦАО,,8500,,,17,51,395,,12500,110000,0,45000,342
Пион,55.7449972,37.5496739,ЦАО,,5000,,,10,8,163,,12500,110000,0,45000,342
Манки,55.7747398,37.6679884,ЦАО,,5500,,,11,12,240,,12500,110000,0,45000,342
Эларджи,55.7444053,37.5960075,ЦАО,,6000,,,12,9,264,,12500,110000,0,45000,342
Даблби,55.7615427,37.631564,ЦАО,,5000,,,10,52,477,,12500,110000,0,45000,342
Сибирские пельмени,55.7037078,37.6523432,ЦАО,,4000,,,8,6,99,,12500,110000,0,45000,342
Barmalini,55.7349909,37.6427921,ЦАО,,4000,,,8,27,232,,12500,110000,0,45000,342
Non Solo,55.7433476,37.6385771,ЦАО,,6000,,,12,6,209,,12500,110000,0,45000,342
Правда Кофе,55.7448768,37.6367726,ЦАО,,6500,,,13,6,184,,12500,110000,0,45000,342
StarHit,55.7211045,37.6104661,ЦАО,,2500,,,5,29,102,,12500,110000,0,45000,342
Ливан Хаус,55.6919214,37.5277928,ЮЗАО,,4500,,,9,24,57,,10500,98000,0,29000,165
Sushi bar,55.6918615,37.527892,ЮЗАО,,4500,,,9,24,57,,10500,98000,0,29000,165
TGI Fridays,55.6915608,37.5276157,ЮЗАО,,4000,,,8,23,56,,10500,98000,0,29000,165
Крошка Картошка,55.6922789,37.5284604,ЮЗАО,,5500,,,11,24,57,,10500,98000,0,29000,165
Кофе Хауз,55.7458923,37.549262,ЦАО,,6000,,,12,6,148,,12500,110000,0,45000,342
Циферблат,55.7632797,37.6079595,ЦАО,,6500,,,13,37,458,,12500,110000,0,45000,342
Bolshoi,55.7613696,37.6183906,ЦАО,,5000,,,10,61,462,,12500,110000,0,45000,342
"Чебуречная ""СССР""",55.7641969,37.6026665,ЦАО,,7500,,,15,41,434,,12500,110000,0,45000,342
Да Чикко,55.6809021,37.5667587,ЦАО,,7500,,,15,18,79,,12500,110000,0,45000,342
Шоколадница,55.6786728,37.5644057,ЦАО,,5500,,,11,19,62,,12500,110000,0,45000,342
Столовая,55.7238071,37.6538897,ЦАО,,5000,,,10,13,80,,12500,110000,0,45000,342
Бургер Кинг,55.647669,37.5950375,ЮАО,,5500,,,11,5,28,,9100,87000,0,24000,192
Breakfast,55.7579096,37.5973729,ЦАО,,5000,,,10,32,365,,12500,110000,0,45000,342
Easy Brix,55.7303784,37.6258837,ЦАО,,7000,,,14,35,249,,12500,110000,0,45000,342
Шоколадница,55.6890358,37.5457923,ЮЗАО,,6500,,,13,8,72,,10500,98000,0,29000,165
Ростик'с,55.7298711,37.640064,ЦАО,,4500,,,9,55,228,,12500,110000,0,45000,342
Beverly Hills Diner,55.7665118,37.6310501,ЦАО,,2500,,,5,34,415,,12500,110000,0,45000,342
Бургер Кинг,55.7275297,37.5800178,ЦАО,,3000,,,6,31,123,,12500,110000,0,45000,342
Prime,55.7239764,37.651,ЦАО,,6000,,,12,16,110,,12500,110000,0,45000,342
Saperavi,55.7587953,37.6409454,ЦАО,,2000,,,4,49,363,,12500,110000,0,45000,342
Saperavi,55.7757542,37.5858489,ЦАО,,7500,,,15,81,334,,12500,110000,0,45000,342
Pho City,55.7470076,37.654475,ЦАО,,8000,,,16,23,178,,12500,110000,0,45000,342
Стрелка,55.7425905,37.6093166,ЦАО,,5000,,,10,29,165,,12500,110000,0,45000,342
Novikov,55.7571214,37.6133719,ЦАО,,5000,,,10,39,398,,12500,110000,0,45000,342
Кимчи,55.7279882,37.6305881,ЦАО,,6000,,,12,15,252,,12500,110000,0,45000,342
Кулинарная лавка братьев Караваевых,55.7428182,37.6002715,ЦАО,,7500,,,15,20,192,,12500,110000,0,45000,342
Кофе с собой,55.6916755,37.5750002,ЦАО,,5000,,,10,7,48,,12500,110000,0,45000,342
Якитория,55.7280401,37.5812447,ЦАО,,3000,,,6,28,135,,12500,110000,0,45000,342
Генацвале VIP,55.7419574,37.5986149,ЦАО,,7000,,,14,13,193,,12500,110000,0,45000,342
Молоко,55.7611373,37.6145531,ЦАО,,5500,,,11,58,460,,12500,110000,0,45000,342
Pinocchio,55.7496863,37.5625968,ЦАО,,4500,,,9,7,163,,12500,110000,0,45000,342
Michel,55.7613843,37.5711631,ЦАО,,10000,,,20,22,159,,12500,110000,0,45000,342
MFCafe,55.7717696,37.6484513,ЦАО,,7500,,,15,35,236,,12500,110000,0,45000,342
Якитория,55.7529635,37.5941592,ЦАО,,4500,,,9,45,314,,12500,110000,0,45000,342
Якитория,55.7135521,37.5221065,ЦАО,,5500,,,11,1,6,,12500,110000,0,45000,342
Якитория,55.6719999,37.5573542,ЦАО,,6000,,,12,13,62,,12500,110000,0,45000,342
Lavash & vertel,55.7763117,37.5815283,ЦАО,,9000,,,18,61,287,,12500,110000,0,45000,342
Чашки,55.7580556,37.5473267,САО,,5500,,,11,4,85,,9800,95000,0,28000,187
Якитория,55.6898852,37.5470533,ЮЗАО,,6500,,,13,8,76,,10500,98000,0,29000,165
Ботаника,55.772185,37.5844068,ЦАО,,8500,,,17,37,277,,12500,110000,0,45000,342
Бургер Кинг,55.7612382,37.5757927,ЦАО,,11000,,,22,24,159,,12500,110000,0,45000,342
Кондитерская Олега Ильина,55.6716044,37.5179708,ЮЗАО,,8000,,,16,3,19,,10500,98000,0,29000,165
Ваби Саби,55.6376332,37.6567332,ЮАО,,7000,,,14,8,15,,9100,87000,0,24000,192
Остерия Марио,55.7606106,37.5792685,ЦАО,,11000,,,22,26,179,,12500,110000,0,45000,342
Гудман,55.6966982,37.5616785,ЦАО,,4500,,,9,5,32,,12500,110000,0,45000,342
Гудман,55.7666113,37.6227779,ЦАО,,4000,,,8,35,475,,12500,110000,0,45000,342
Белое солнце пустыни,55.7661303,37.6204645,ЦАО,,4500,,,9,35,507,,12500,110000,0,45000,342
Узбекистан,55.7658449,37.6201962,ЦАО,,4500,,,9,37,515,,12500,110000,0,45000,342
Джонджоли,55.7410375,37.6283559,ЦАО,,4500,,,9,60,221,,12500,110000,0,45000,342
Кофемания,55.7348102,37.6427932,ЦАО,,4500,,,9,25,230,,12500,110000,0,45000,342
Кофемания,55.7466423,37.5568489,ЦАО,,5000,,,10,6,143,,12500,110000,0,45000,342
Кофемания,55.7547747,37.6215849,ЦАО,,3000,,,6,29,367,,12500,110000,0,45000,342
Кофемания,55.7583361,37.5854337,ЦАО,,7500,,,15,23,243,,12500,110000,0,45000,342
Кофемания,55.7586055,37.6265082,ЦАО,,6000,,,12,51,468,,12500,110000,0,45000,342
Кофемания,55.7667237,37.6219076,ЦАО,,4000,,,8,37,482,,12500,110000,0,45000,342
Кофемания,55.7675783,37.6008039,ЦАО,,8000,,,16,44,373,,12500,110000,0,45000,342
Гриль Хаус,55.7618722,37.6267249,ЦАО,,4000,,,8,61,484,,12500,110000,0,45000,342
Subway,55.7612965,37.6233636,ЦАО,,6000,,,12,80,481,,12500,110000,0,45000,342
Светлый,55.7661863,37.6507405,ЦАО,,7000,,,14,12,297,,12500,110000,0,45000,342
Страна которой нет,55.7581699,37.6179007,ЦАО,,5000,,,10,34,400,,12500,110000,0,45000,342
Tutta la Vita,55.7410754,37.6247002,ЦАО,,5000,,,10,46,242,,12500,110000,0,45000,342
Пилзнер,55.7638187,37.564007,ЦАО,,9000,,,18,25,147,,12500,110000,0,45000,342
Хинкальная,55.7282516,37.6149555,ЦАО,,5000,,,10,15,183,,12500,110000,0,45000,342
Козловица,55.740907,37.6291234,ЦАО,,4500,,,9,60,218,,12500,110000,0,45000,342
Эссе,55.7411699,37.6289088,ЦАО,,5000,,,10,61,217,,12500,110000,0,45000,342
Gussi,55.7587885,37.6260881,ЦАО,,6000,,,12,56,475,,12500,110000,0,45000,342
Baccarat Cristal Room,55.7587151,37.6243684,ЦАО,,5500,,,11,77,462,,12500,110000,0,45000,342
,55.6552046,37.553019,ЦАО,,4500,,,9,8,41,,12500,110000,0,45000,342
Cafe 21,55.7416764,37.5683438,ЦАО,,8500,,,17,14,137,,12500,110000,0,45000,342
Сандык,55.7217324,37.6310645,ЦАО,,2500,,,5,12,123,,12500,110000,0,45000,342
Рэдимэйд,55.6968499,37.5619461,ЦАО,,5000,,,10,4,32,,12500,110000,0,45000,342
Лодка,55.7512696,37.5843043,ЦАО,,4000,,,8,35,226,,12500,110000,0,45000,342
La Bottega Siciliana,55.757616,37.6184195,ЦАО,,4500,,,9,37,384,,12500,110000,0,45000,342
White Rabbit,55.7477071,37.5818814,ЦАО,,5000,,,10,41,184,,12500,110000,0,45000,342
Megumi,55.7502624,37.5837878,ЦАО,,4500,,,9,38,211,,12500,110000,0,45000,342
Метрополь,55.7588322,37.6211714,ЦАО,,6500,,,13,67,429,,12500,110000,0,45000,342
Delimarche,55.7635669,37.5514972,ЦАО,,3000,,,6,13,92,,12500,110000,0,45000,342
Correas,55.7676092,37.579411,ЦАО,,5000,,,10,11,244,,12500,110000,0,45000,342
Cantinetta Antinori,55.7453496,37.5867229,ЦАО,,3500,,,7,13,240,,12500,110000,0,45000,342
Delicatessen,55.7725657,37.6108986,ЦАО,,10000,,,20,15,341,,12500,110000,0,45000,342
Булка,55.7595465,37.6463758,ЦАО,,3000,,,6,51,412,,12500,110000,0,45000,342
Квартира 44,55.7375421,37.6172123,ЦАО,,5500,,,11,22,231,,12500,110000,0,45000,342
Барашка,55.7552165,37.5601225,ЦАО,,6500,,,13,21,135,,12500,110000,0,45000,342
Белый Журавль,55.7307156,37.5931222,ЦАО,,5000,,,10,9,159,,12500,110000,0,45000,342
Донна Маргарита,55.7556372,37.5597505,ЦАО,,7500,,,15,21,135,,12500,110000,0,45000,342
Grand Cru,55.762921,37.594966,ЦАО,,2500,,,5,40,355,,12500,110000,0,45000,342
Старый Сычуань,55.7546503,37.6346653,ЦАО,,6000,,,12,49,368,,12500,110000,0,45000,342
Мари Ванна,55.762678,37.5956303,ЦАО,,2500,,,5,43,349,,12500,110000,0,45000,342
Хачапури,55.763236,37.6052987,ЦАО,,6500,,,13,41,444,,12500,110000,0,45000,342
Il Forno,55.7614954,37.6204803,ЦАО,,5500,,,11,62,488,,12500,110000,0,45000,342
Академия,55.7448662,37.5659829,ЦАО,,8500,,,17,73,138,,12500,110000,0,45000,342
Академия,55.7594722,37.6129577,ЦАО,,5500,,,11,60,470,,12500,110000,0,45000,342
Академия,55.7356695,37.6698951,ЦАО,,6500,,,13,6,131,,12500,110000,0,45000,342
Академия,55.7379347,37.6019063,ЦАО,,2000,,,4,8,183,,12500,110000,0,45000,342
Black Market,55.730769,37.5768226,ЦАО,,3500,,,7,8,140,,12500,110000,0,45000,342
Bon App,55.7591073,37.6249956,ЦАО,,5500,,,11,69,472,,12500,110000,0,45000,342
У Бурчо,55.7347627,37.6416371,ЦАО,,4500,,,9,29,229,,12500,110000,0,45000,342
Christian,55.7505493,37.5644385,ЦАО,,4000,,,8,13,158,,12500,110000,0,45000,342
Cezve Coffee,55.7341268,37.6054914,ЦАО,,2000,,,4,7,181,,12500,110000,0,45000,342
Buono,55.7512042,37.5661254,ЦАО,,4500,,,9,14,156,,12500,110000,0,45000,342
Gini,55.7690732,37.6162885,ЦАО,,6000,,,12,25,394,,12500,110000,0,45000,342
Sixty,55.7492869,37.5370405,ЦАО,,5000,,,10,95,146,,12500,110000,0,45000,342
Куршевель,55.7618235,37.6186412,ЦАО,,4500,,,9,61,468,,12500,110000,0,45000,342
Трубадур,55.7512272,37.5657824,ЦАО,,5000,,,10,14,155,,12500,110000,0,45000,342
Ла Пиола,55.6334093,37.5202518,ЮЗАО,,6000,,,12,4,15,,10500,98000,0,29000,165
Бардак,55.7573612,37.6343743,ЦАО,,8000,,,16,48,420,,12500,110000,0,45000,342
Джаганнат,55.7573865,37.6341099,ЦАО,,8000,,,16,47,422,,12500,110000,0,45000,342
Джаганнат,55.7586982,37.6572204,ЦАО,,4500,,,9,48,268,,12500,110000,0,45000,342
Prime,55.7619735,37.622799,ЦАО,,6000,,,12,79,500,,12500,110000,0,45000,342
Unlock,55.7557596,37.6334406,ЦАО,,7500,,,15,62,386,,12500,110000,0,45000,342
Cafe Garage,55.7279467,37.6019626,ЦАО,,1500,,,3,12,128,,12500,110000,0,45000,342
Меркато,55.7276873,37.5980827,ЦАО,,1500,,,3,23,129,,12500,110000,0,45000,342
Бейрут,55.7642666,37.6531341,ЦАО,,6000,,,12,21,311,,12500,110000,0,45000,342
La Provincia,55.7277837,37.6136238,ЦАО,,5000,,,10,18,182,,12500,110000,0,45000,342
Ess-Thetik,55.7623314,37.5955384,ЦАО,,3000,,,6,45,342,,12500,110000,0,45000,342
Costa Coffee,55.7557958,37.5571318,ЦАО,,8000,,,16,22,132,,12500,110000,0,45000,342
Кабинет,55.7589194,37.6174201,ЦАО,,4500,,,9,51,426,,12500,110000,0,45000,342
Prime,55.6532344,37.5537315,ЦАО,,4500,,,9,5,34,,12500,110000,0,45000,342
Prime,55.7504786,37.652918,ЦАО,,7000,,,14,5,200,,12500,110000,0,45000,342
Prime,55.7603631,37.6143271,ЦАО,,5000,,,10,59,460,,12500,110000,0,45000,342
Prime,55.7198771,37.6290769,ЦАО,,3000,,,6,9,92,,12500,110000,0,45000,342
Prime,55.7616389,37.6584451,ЦАО,,7500,,,15,41,250,,12500,110000,0,45000,342
Poke house,55.7338188,37.589913,ЦАО,,6500,,,13,33,166,,12500,110000,0,45000,342
Prime,55.7349828,37.6423498,ЦАО,,4000,,,8,29,231,,12500,110000,0,45000,342
Prime,55.7456867,37.6635393,ЦАО,,6500,,,13,6,195,,12500,110000,0,45000,342
Prime,55.7633879,37.5514311,ЦАО,,2500,,,5,13,93,,12500,110000,0,45000,342
Prime,55.7713371,37.5904231,ЦАО,,6000,,,12,28,385,,12500,110000,0,45000,342
Luma,55.7411557,37.6292483,ЦАО,,5000,,,10,59,217,,12500,110000,0,45000,342
Бон Котто,55.6931172,37.5339019,ЮЗАО,,7000,,,14,21,68,,10500,98000,0,29000,165
Шоколад,55.6885544,37.5285971,ЮЗАО,,4500,,,9,1,61,,10500,98000,0,29000,165
Река,55.7404542,37.6089752,ЦАО,,3500,,,7,28,165,,12500,110000,0,45000,342
Alexander's митпойнт,55.7590293,37.6054846,ЦАО,,5000,,,10,33,425,,12500,110000,0,45000,342
Дарбази,55.7471962,37.6510346,ЦАО,,6500,,,13,15,172,,12500,110000,0,45000,342
Arts palace,55.7692627,37.6072834,ЦАО,,11500,,,23,36,385,,12500,110000,0,45000,342
Бутчер,55.7567144,37.6322626,ЦАО,,7500,,,15,45,401,,12500,110000,0,45000,342
Marea,55.7568227,37.6321303,ЦАО,,7500,,,15,46,405,,12500,110000,0,45000,342
Frank by Баста,55.7628266,37.635186,ЦАО,,2000,,,4,55,477,,12500,110000,0,45000,342
Шербет,55.7637243,37.6356848,ЦАО,,2000,,,4,58,462,,12500,110000,0,45000,342
Бутчер,55.7686511,37.6229028,ЦАО,,4000,,,8,45,407,,12500,110000,0,45000,342
Kulek,55.7602517,37.6146967,ЦАО,,5000,,,10,60,453,,12500,110000,0,45000,342
Menza,55.6366618,37.521502,ЮЗАО,,5500,,,11,3,52,,10500,98000,0,29000,165
Вкусно — и точка,55.6365241,37.5214169,ЮЗАО,,5500,,,11,3,51,,10500,98000,0,29000,165
Бирхаус,55.7641264,37.607958,ЦАО,,7500,,,15,52,451,,12500,110000,0,45000,342
Balanch,55.7619891,37.6268508,ЦАО,,4000,,,8,61,483,,12500,110000,0,45000,342
Acapella,55.7331045,37.6444378,ЦАО,,5000,,,10,25,202,,12500,110000,0,45000,342
Брусника,55.7576274,37.636339,ЦАО,,6500,,,13,55,429,,12500,110000,0,45000,342
Николай,55.7350988,37.6279271,ЦАО,,3500,,,7,21,319,,12500,110000,0,45000,342
Николай,55.7644766,37.6570614,ЦАО,,7500,,,15,29,285,,12500,110000,0,45000,342
Хинкальная №1,55.7645533,37.6572825,ЦАО,,8000,,,16,29,287,,12500,110000,0,45000,342
Штолле,55.7454704,37.6270757,ЦАО,,8500,,,17,34,173,,12500,110000,0,45000,342
Колибри,55.6574434,37.5292203,ЮЗАО,,4000,,,8,4,45,,10500,98000,0,29000,165
Джанни,55.7384414,37.6149139,ЦАО,,5000,,,10,24,206,,12500,110000,0,45000,342
I love cake,55.7626112,37.5920186,ЦАО,,3000,,,6,37,309,,12500,110000,0,45000,342
Brasserie Lambic,55.7545736,37.6540123,ЦАО,,4000,,,8,11,281,,12500,110000,0,45000,342
Brasserie Lambic,55.766541,37.6406696,ЦАО,,2000,,,4,19,340,,12500,110000,0,45000,342
Рыбный базар,55.7656972,37.597562,ЦАО,,5500,,,11,31,368,,12500,110000,0,45000,342
Чанахи,55.7686422,37.6037261,ЦАО,,9000,,,18,42,369,,12500,110000,0,45000,342
China Club,55.7688281,37.5860234,ЦАО,,6000,,,12,20,309,,12500,110000,0,45000,342
Ткемали,55.7609181,37.622309,ЦАО,,6000,,,12,82,483,,12500,110000,0,45000,342
Сценарио,55.7670324,37.6019039,ЦАО,,7000,,,14,42,379,,12500,110000,0,45000,342
Бенвенуто,55.7660691,37.6341929,ЦАО,,2500,,,5,38,420,,12500,110000,0,45000,342
Gayane's,55.7470893,37.5813401,ЦАО,,5500,,,11,37,204,,12500,110000,0,45000,342
Бали,55.7656707,37.6115803,ЦАО,,7500,,,15,48,453,,12500,110000,0,45000,342
Торро Гриль,55.6919867,37.5293416,ЮЗАО,,5500,,,11,26,58,,10500,98000,0,29000,165
Торро Гриль,55.7311246,37.6667163,ЦАО,,9500,,,19,21,102,,12500,110000,0,45000,342
Pokeville,55.7613639,37.5799267,ЦАО,,11500,,,23,21,184,,12500,110000,0,45000,342
Beefbar Junior,55.7420616,37.567829,ЦАО,,9000,,,18,34,137,,12500,110000,0,45000,342
Shashleek,55.7530239,37.5761512,ЦАО,,6000,,,12,1,201,,12500,110000,0,45000,342
Чентрале,55.744593,37.567512,ЦАО,,8000,,,16,67,150,,12500,110000,0,45000,342
Маэстро,55.7214796,37.6357752,ЦАО,,0,,,0,14,133,,12500,110000,0,45000,342
Пиццерия,55.7215334,37.6353644,ЦАО,,500,,,1,14,137,,12500,110000,0,45000,342
Subway,55.7218373,37.6359462,ЦАО,,0,,,0,14,151,,12500,110000,0,45000,342
Black Angus,55.7728167,37.5917763,ЦАО,,5000,,,10,27,411,,12500,110000,0,45000,342
Старик и море,55.7606807,37.6439178,ЦАО,,2500,,,5,54,403,,12500,110000,0,45000,342
Zea,55.7516828,37.5657122,ЦАО,,4500,,,9,14,153,,12500,110000,0,45000,342
Хинкальная,55.7630365,37.6197868,ЦАО,,4500,,,9,56,511,,12500,110000,0,45000,342
Fumisawa Sushi,55.7619751,37.6173681,ЦАО,,4000,,,8,60,469,,12500,110000,0,45000,342
Luciano,55.7570968,37.6587567,ЦАО,,4000,,,8,53,248,,12500,110000,0,45000,342
Баан Тай,55.7459772,37.5533208,ЦАО,,4500,,,9,6,161,,12500,110000,0,45000,342
Хинкали - хачапури,55.757686,37.6114426,ЦАО,,3500,,,7,41,434,,12500,110000,0,45000,342
Авокадо,55.7610472,37.6434985,ЦАО,,2500,,,5,51,396,,12500,110000,0,45000,342
Бургер Кинг,55.7405966,37.6578383,ЦАО,,13500,,,27,46,195,,12500,110000,0,45000,342
Вареничная №1,55.7749446,37.6567439,ЦАО,,8000,,,16,45,192,,12500,110000,0,45000,342
Atlantica,55.7388384,37.5265223,ЦАО,,4000,,,8,20,56,,12500,110000,0,45000,342
Хитрые люди,55.755696,37.6657227,ЦАО,,3500,,,7,14,162,,12500,110000,0,45000,342
Tutti Frutti Frozen Yogurt,55.7492845,37.5429426,ЦАО,,3500,,,7,34,142,,12500,110000,0,45000,342
Brasserie 2.0,55.7620415,37.5707581,ЦАО,,7500,,,15,26,157,,12500,110000,0,45000,342
Сойка напела,55.7624421,37.5670775,ЦАО,,8500,,,17,32,167,,12500,110000,0,45000,342
Армения,55.7640839,37.6053127,ЦАО,,6500,,,13,57,443,,12500,110000,0,45000,342
Peshi,55.7573348,37.6169663,ЦАО,,4500,,,9,47,377,,12500,110000,0,45000,342
Образ жизни,55.7392144,37.5873252,ЦАО,,7500,,,15,17,154,,12500,110000,0,45000,342
Шоколадница,55.7393618,37.5876826,ЦАО,,8500,,,17,17,157,,12500,110000,0,45000,342
Terrine,55.7379416,37.5891937,ЦАО,,9500,,,19,28,138,,12500,110000,0,45000,342
Accenti,55.7376363,37.5931193,ЦАО,,6500,,,13,27,147,,12500,110000,0,45000,342
Жеральдин,55.7390249,37.5974187,ЦАО,,5500,,,11,11,176,,12500,110000,0,45000,342
Кому жить хорошо,55.7402185,37.6060512,ЦАО,,3000,,,6,23,159,,12500,110000,0,45000,342
Своё,55.7451451,37.597211,ЦАО,,7000,,,14,16,253,,12500,110000,0,45000,342
Волшебнутый кофе,55.7654244,37.5974271,ЦАО,,5500,,,11,32,366,,12500,110000,0,45000,342
Fresco,55.7279092,37.5855266,ЦАО,,5000,,,10,6,138,,12500,110000,0,45000,342
Magnus Locus,55.7741425,37.6331953,ЦАО,,6500,,,13,14,253,,12500,110000,0,45000,342
Черетто,55.6730967,37.5260518,ЮЗАО,,6000,,,12,3,31,,10500,98000,0,29000,165
Bamboobar,55.7467936,37.5390985,ЦАО,,4500,,,9,63,155,,12500,110000,0,45000,342
Доможилов,55.7521672,37.6711287,ЦАО,,5000,,,10,13,121,,12500,110000,0,45000,342
Иерусалим,55.7600489,37.5980552,ЦАО,,5500,,,11,26,396,,12500,110000,0,45000,342
Римон,55.7555599,37.6350819,ЦАО,,7000,,,14,81,387,,12500,110000,0,45000,342
Эль Асадор,55.7349984,37.6245966,ЦАО,,5000,,,10,21,291,,12500,110000,0,45000,342
Порту Атриум,55.7019277,37.5684777,ЦАО,,3000,,,6,0,26,,12500,110000,0,45000,342
Сорока Бистро,55.6776176,37.5740961,ЦАО,,5500,,,11,17,62,,12500,110000,0,45000,342
32.05,55.770719,37.6084607,ЦАО,,11000,,,22,28,369,,12500,110000,0,45000,342
Tandoor,55.7718473,37.5996369,ЦАО,,8000,,,16,38,386,,12500,110000,0,45000,342
California Diner,55.7505341,37.5954116,ЦАО,,4500,,,9,56,308,,12500,110000,0,45000,342
Порто Мальтезе,55.723387,37.6039573,ЦАО,,2000,,,4,2,120,,12500,110000,0,45000,342
Coffeshop Company,55.7409385,37.6224194,ЦАО,,6000,,,12,19,240,,12500,110000,0,45000,342
Сок,55.7415244,37.6214754,ЦАО,,5500,,,11,18,233,,12500,110000,0,45000,342
,55.6626597,37.554667,ЦАО,,3500,,,7,5,56,,12500,110000,0,45000,342
Дядя Геральт,55.7473714,37.6550446,ЦАО,,7500,,,15,22,179,,12500,110000,0,45000,342
Гогиели,55.7348423,37.6680481,ЦАО,,7000,,,14,12,133,,12500,110000,0,45000,342
Шоколадница,55.7372102,37.5246631,ЦАО,,5500,,,11,9,55,,12500,110000,0,45000,342
Нияма,55.6875993,37.6039471,ЦАО,,5500,,,11,8,44,,12500,110000,0,45000,342
Линдфорс,55.727862,37.5669291,ЦАО,,6500,,,13,19,118,,12500,110000,0,45000,342
Rico,55.7437942,37.5809732,ЦАО,,5500,,,11,13,204,,12500,110000,0,45000,342
Буйабес,55.7109924,37.5865204,ЦАО,,4500,,,9,12,80,,12500,110000,0,45000,342
Илья Муромец,55.7100242,37.585506,ЦАО,,4500,,,9,12,78,,12500,110000,0,45000,342
Корчма,55.7105455,37.5858991,ЦАО,,4500,,,9,11,78,,12500,110000,0,45000,342
Cofix,55.7440195,37.6276755,ЦАО,,8500,,,17,44,183,,12500,110000,0,45000,342
Босфор,55.7479308,37.5877293,ЦАО,,2000,,,4,36,230,,12500,110000,0,45000,342
Сахли,55.7706538,37.6164053,ЦАО,,9000,,,18,42,327,,12500,110000,0,45000,342
Столовая на Фрунзенской,55.725117,37.582821,ЦАО,,6500,,,13,14,114,,12500,110000,0,45000,342
Чеховъ,55.7599349,37.6129995,ЦАО,,4500,,,9,60,469,,12500,110000,0,45000,342
Синяя река,55.7535502,37.5828957,ЦАО,,5500,,,11,22,233,,12500,110000,0,45000,342
Ugolёk,55.7564238,37.6066762,ЦАО,,7000,,,14,35,352,,12500,110000,0,45000,342
БиблIQтека,55.7590493,37.6056885,ЦАО,,5000,,,10,31,425,,12500,110000,0,45000,342
Сказочный двор,55.7447885,37.5552676,ЦАО,,3500,,,7,7,128,,12500,110000,0,45000,342
Траттория-пиццерия,55.7431825,37.617803,ЦАО,,6000,,,12,8,217,,12500,110000,0,45000,342
Кофемания,55.7417631,37.6157368,ЦАО,,5000,,,10,14,220,,12500,110000,0,45000,342
Чайхона №1,55.7639714,37.6182687,ЦАО,,4500,,,9,45,511,,12500,110000,0,45000,342
Чайхона №1,55.6494743,37.5345534,ЮЗАО,,4000,,,8,2,52,,10500,98000,0,29000,165
Чайхона № 1,55.7423451,37.6166496,ЦАО,,4500,,,9,12,215,,12500,110000,0,45000,342
Чайхона №1,55.7521377,37.5858586,ЦАО,,4500,,,9,41,239,,12500,110000,0,45000,342
Чайхона №1,55.7715511,37.5929598,ЦАО,,5500,,,11,36,432,,12500,110000,0,45000,342
Pizza Express,55.6915867,37.5271852,ЮЗАО,,4500,,,9,23,56,,10500,98000,0,29000,165
Fullmoon,55.7585697,37.5917661,ЦАО,,6000,,,12,6,330,,12500,110000,0,45000,342
Шоколадница,55.7621287,37.6223723,ЦАО,,5000,,,10,72,504,,12500,110000,0,45000,342
Ми Ли,55.7746121,37.6325288,ЦАО,,5500,,,11,9,235,,12500,110000,0,45000,342
Союз Композиторов,55.7594588,37.6091056,ЦАО,,4000,,,8,32,474,,12500,110000,0,45000,342
Кулинарная лавка братьев Караваевых,55.7611131,37.6028932,ЦАО,,6000,,,12,20,422,,12500,110000,0,45000,342
Калашный,55.7541846,37.6026255,ЦАО,,5000,,,10,35,301,,12500,110000,0,45000,342
Maestrello,55.7587752,37.6458727,ЦАО,,2500,,,5,51,395,,12500,110000,0,45000,342
Рамен Клаб,55.7608519,37.6324894,ЦАО,,4500,,,9,46,481,,12500,110000,0,45000,342
Tokyo,55.7570651,37.6028319,ЦАО,,5000,,,10,40,380,,12500,110000,0,45000,342
Юг22,55.757016,37.6033206,ЦАО,,5500,,,11,40,377,,12500,110000,0,45000,342
Zodiac,55.7477947,37.5814982,ЦАО,,5500,,,11,41,182,,12500,110000,0,45000,342
Примавера,55.7239367,37.6112945,ЦАО,,2500,,,5,17,168,,12500,110000,0,45000,342
Венеция,55.7634153,37.614922,ЦАО,,4500,,,9,36,476,,12500,110000,0,45000,342
Венеция,55.7715998,37.5988107,ЦАО,,8500,,,17,39,391,,12500,110000,0,45000,342
Тибет,55.7651342,37.6355012,ЦАО,,2000,,,4,45,443,,12500,110000,0,45000,342
Калина,55.76431,37.6293553,ЦАО,,2500,,,5,22,495,,12500,110000,0,45000,342
Лубянка,55.7644551,37.6290416,ЦАО,,2000,,,4,19,491,,12500,110000,0,45000,342
Chesterfield,55.7521465,37.5890008,ЦАО,,4000,,,8,43,270,,12500,110000,0,45000,342
317,55.7547242,37.5698618,ЦАО,,5000,,,10,4,139,,12500,110000,0,45000,342
Море,55.7644121,37.5963886,ЦАО,,5000,,,10,44,370,,12500,110000,0,45000,342
Высота 5642,55.7559625,37.6276128,ЦАО,,8500,,,17,19,408,,12500,110000,0,45000,342
Бургер Кинг,55.6402311,37.6089269,ЮАО,,7000,,,14,9,24,,9100,87000,0,24000,192
Chang,55.754283,37.6373993,ЦАО,,7000,,,14,48,318,,12500,110000,0,45000,342
Даблби,55.7732756,37.5954849,ЦАО,,5000,,,10,36,452,,12500,110000,0,45000,342
Historia,55.7587079,37.5866622,ЦАО,,7500,,,15,27,256,,12500,110000,0,45000,342
Rostic's,55.7410268,37.6278625,ЦАО,,4500,,,9,56,222,,12500,110000,0,45000,342
Вилла Паста,55.7409067,37.6283432,ЦАО,,4500,,,9,59,221,,12500,110000,0,45000,342
Dомино'с,55.6891327,37.5682922,ЦАО,,7500,,,15,11,60,,12500,110000,0,45000,342
Lovemark,55.7341435,37.5870892,ЦАО,,7000,,,14,23,161,,12500,110000,0,45000,342
Сыто Piano,55.765693,37.6209295,ЦАО,,4500,,,9,35,513,,12500,110000,0,45000,342
Тарелка,55.7616575,37.6580294,ЦАО,,7000,,,14,30,257,,12500,110000,0,45000,342
Vasilchuki Chaihona №1,55.6806105,37.5956922,ЦАО,,8000,,,16,5,27,,12500,110000,0,45000,342
Vasilchuki Chaihona №1,55.7441069,37.5660874,ЦАО,,8000,,,16,75,137,,12500,110000,0,45000,342
Vasilchuki Chaihona №1,55.7617034,37.5795669,ЦАО,,10000,,,20,22,182,,12500,110000,0,45000,342
Vasilchuki Chaihona №1,55.7660489,37.6073622,ЦАО,,7500,,,15,66,436,,12500,110000,0,45000,342
Kemer,55.7487917,37.5888269,ЦАО,,3500,,,7,27,233,,12500,110000,0,45000,342
Prime,55.7625562,37.6077948,ЦАО,,6000,,,12,31,456,,12500,110000,0,45000,342
Долма,55.7678255,37.6318896,ЦАО,,3500,,,7,35,386,,12500,110000,0,45000,342
IL Патио,55.7762007,37.5819501,ЦАО,,9500,,,19,62,291,,12500,110000,0,45000,342
Coffee,55.7761547,37.5817739,ЦАО,,9500,,,19,62,291,,12500,110000,0,45000,342
Пышка Доната,55.7404918,37.6087313,ЦАО,,3500,,,7,28,164,,12500,110000,0,45000,342
"Пироги, вино и гусь",55.7725712,37.6207706,ЦАО,,5500,,,11,48,278,,12500,110000,0,45000,342
Китайская грамота,55.7666752,37.6304185,ЦАО,,2500,,,5,31,419,,12500,110000,0,45000,342
Без повода,55.7322297,37.6108987,ЦАО,,5500,,,11,13,185,,12500,110000,0,45000,342
Пельмени & Пельмени,55.747311,37.6081919,ЦАО,,8000,,,16,8,201,,12500,110000,0,45000,342
ЦДЛ,55.7574291,37.5873015,ЦАО,,6000,,,12,18,298,,12500,110000,0,45000,342
Шоколадница,55.6407522,37.6090829,ЮАО,,7500,,,15,9,24,,9100,87000,0,24000,192
Суши Wok,55.7728065,37.6794623,ЦАО,,8000,,,16,53,138,,12500,110000,0,45000,342
Udon Noodle Bar,55.6929413,37.5343185,ЮЗАО,,7000,,,14,22,70,,10500,98000,0,29000,165
Кулинарная лавка братьев Караваевых,55.7716874,37.5909374,ЦАО,,6000,,,12,26,416,,12500,110000,0,45000,342
,55.7515898,37.6097522,ЦАО,,6500,,,13,19,262,,12500,110000,0,45000,342
Folk,55.768057,37.6230301,ЦАО,,4500,,,9,41,432,,12500,110000,0,45000,342
Аддис-Абеба,55.7623604,37.6567103,ЦАО,,7500,,,15,33,265,,12500,110000,0,45000,342
Costa Coffee,55.7470041,37.6073358,ЦАО,,9500,,,19,8,198,,12500,110000,0,45000,342
Гамбринус,55.7354055,37.5924026,ЦАО,,6000,,,12,34,147,,12500,110000,0,45000,342
Мольберт,55.7564742,37.5541095,ЦАО,,7500,,,15,20,118,,12500,110000,0,45000,342
Риверсайд,55.7569224,37.5548415,ЦАО,,8000,,,16,21,126,,12500,110000,0,45000,342
У Пиросмани,55.7291533,37.5583597,ЦАО,,8000,,,16,4,73,,12500,110000,0,45000,342
Гриль хаус,55.7225428,37.5915912,ЦАО,,3500,,,7,5,91,,12500,110000,0,45000,342
Гурмэ,55.756879,37.621849,ЦАО,,5500,,,11,46,401,,12500,110000,0,45000,342
Il Патио,55.7578877,37.6248832,ЦАО,,5000,,,10,67,448,,12500,110000,0,45000,342
#Farш,55.7589214,37.6251469,ЦАО,,5500,,,11,69,471,,12500,110000,0,45000,342
,55.7273127,37.5499629,ЦАО,,3500,,,7,0,38,,12500,110000,0,45000,342
Кофе ON,55.7424943,37.6248548,ЦАО,,6000,,,12,50,224,,12500,110000,0,45000,342
Шаурмастер,55.6631179,37.5188678,ЮЗАО,,3500,,,7,1,23,,10500,98000,0,29000,165
Каллипсо,55.6935993,37.5342578,ЮЗАО,,5500,,,11,21,71,,10500,98000,0,29000,165
Карло,55.7507473,37.5958901,ЦАО,,5000,,,10,58,309,,12500,110000,0,45000,342
Ритм & Блюз,55.7511323,37.6069194,ЦАО,,6000,,,12,21,262,,12500,110000,0,45000,342
Трапезная паломника,55.731468,37.657397,ЦАО,,7000,,,14,1,155,,12500,110000,0,45000,342
,55.7285714,37.6456131,ЦАО,,3500,,,7,35,187,,12500,110000,0,45000,342
Wursthaus,55.730049,37.599606,ЦАО,,3500,,,7,14,140,,12500,110000,0,45000,342
MoreКот,55.7435778,37.6018142,ЦАО,,8500,,,17,22,187,,12500,110000,0,45000,342
Subway,55.7205733,37.6153376,ЦАО,,3500,,,7,2,137,,12500,110000,0,45000,342
Пицца-фабрика,55.6774521,37.576722,ЦАО,,6500,,,13,10,56,,12500,110000,0,45000,342
Sattva,55.7666696,37.6022969,ЦАО,,6500,,,13,43,385,,12500,110000,0,45000,342
Батони,55.721282,37.5727673,ЦАО,,5000,,,10,2,95,,12500,110000,0,45000,342
,55.7228663,37.6504753,ЦАО,,4500,,,9,18,98,,12500,110000,0,45000,342
Truba,55.7352602,37.5845948,ЦАО,,6000,,,12,23,142,,12500,110000,0,45000,342
